{"_id":{"$oid":"594a086191140e45d06f5588"},"type":"Feature","properties":{"Name":"CARE MEDICAL CLINIC","description":"","timestamp":null,"begin":null,"end":null,"altitudeMode":"clampToGround","tessellate":-1,"extrude":0,"visibility":-1,"drawOrder":null,"icon":null,"snippet":"","queueImg":"","latestUser":""},"geometry":{"type":"Point","coordinates":[103.8863678473718,1.373312700838002,0.0]}}
{"_id":{"$oid":"594a086191140e45d06f5589"},"type":"Feature","properties":{"Name":"CARITAS CLINIC","description":"","timestamp":null,"begin":null,"end":null,"altitudeMode":"clampToGround","tessellate":-1,"extrude":0,"visibility":-1,"drawOrder":null,"icon":null,"snippet":"","queueImg":"","latestUser":""},"geometry":{"type":"Point","coordinates":[103.9012286100388,1.329552568140866,0.0]}}
{"_id":{"$oid":"594a086191140e45d06f558a"},"type":"Feature","properties":{"Name":"CASHEW MEDICAL \u0026 SURGERY","description":"","timestamp":null,"begin":null,"end":null,"altitudeMode":"clampToGround","tessellate":-1,"extrude":0,"visibility":-1,"drawOrder":null,"icon":null,"snippet":"","queueImg":"","latestUser":""},"geometry":{"type":"Point","coordinates":[103.7707683051502,1.383580445935803,0.0]}}
{"_id":{"$oid":"594a086191140e45d06f558b"},"type":"Feature","properties":{"Name":"CASSIA CLINIC \u0026 SURGERY","description":"","timestamp":null,"begin":null,"end":null,"altitudeMode":"clampToGround","tessellate":-1,"extrude":0,"visibility":-1,"drawOrder":null,"icon":null,"snippet":"","queueImg":"","latestUser":""},"geometry":{"type":"Point","coordinates":[103.8844717800692,1.309640784606781,0.0]}}
{"_id":{"$oid":"594a086191140e45d06f558c"},"type":"Feature","properties":{"Name":"CCK FAMILY CLINIC","description":"","timestamp":null,"begin":null,"end":null,"altitudeMode":"clampToGround","tessellate":-1,"extrude":0,"visibility":-1,"drawOrder":null,"icon":null,"snippet":"","queueImg":"","latestUser":""},"geometry":{"type":"Point","coordinates":[103.7431458470935,1.384496080583212,0.0]}}
{"_id":{"$oid":"594a086191140e45d06f558d"},"type":"Feature","properties":{"Name":"CECILIA FAMILY CLINIC \u0026 SURGERY","description":"","timestamp":null,"begin":null,"end":null,"altitudeMode":"clampToGround","tessellate":-1,"extrude":0,"visibility":-1,"drawOrder":null,"icon":null,"snippet":"","queueImg":"","latestUser":""},"geometry":{"type":"Point","coordinates":[103.9526394471581,1.36189785903623,0.0]}}
{"_id":{"$oid":"594a086191140e45d06f558e"},"type":"Feature","properties":{"Name":"CENTRAL 24-HR CLINIC (BEDOK)","description":"","timestamp":null,"begin":null,"end":null,"altitudeMode":"clampToGround","tessellate":-1,"extrude":0,"visibility":-1,"drawOrder":null,"icon":null,"snippet":"","queueImg":"","latestUser":""},"geometry":{"type":"Point","coordinates":[103.9329480877264,1.324964576720664,0.0]}}
{"_id":{"$oid":"594a086191140e45d06f558f"},"type":"Feature","properties":{"Name":"CENTRAL 24-HR CLINIC (HOUGANG)","description":"","timestamp":null,"begin":null,"end":null,"altitudeMode":"clampToGround","tessellate":-1,"extrude":0,"visibility":-1,"drawOrder":null,"icon":null,"snippet":"","queueImg":"","latestUser":""},"geometry":{"type":"Point","coordinates":[103.8856791597956,1.372978402631192,0.0]}}
{"_id":{"$oid":"594a086191140e45d06f5590"},"type":"Feature","properties":{"Name":"CENTRAL 24-HR CLINIC (PASIR RIS)","description":"","timestamp":null,"begin":null,"end":null,"altitudeMode":"clampToGround","tessellate":-1,"extrude":0,"visibility":-1,"drawOrder":null,"icon":null,"snippet":"","queueImg":"","latestUser":""},"geometry":{"type":"Point","coordinates":[103.9577268648287,1.370306193303935,0.0]}}
{"_id":{"$oid":"594a086191140e45d06f5591"},"type":"Feature","properties":{"Name":"CENTRAL 24-HR CLINIC (WOODLANDS)","description":"","timestamp":null,"begin":null,"end":null,"altitudeMode":"clampToGround","tessellate":-1,"extrude":0,"visibility":-1,"drawOrder":null,"icon":null,"snippet":"","queueImg":"","latestUser":""},"geometry":{"type":"Point","coordinates":[103.7981409938813,1.445622907486908,0.0]}}
{"_id":{"$oid":"594a086191140e45d06f5592"},"type":"Feature","properties":{"Name":"CENTRAL 24-HR CLINIC (YISHUN)","description":"","timestamp":null,"begin":null,"end":null,"altitudeMode":"clampToGround","tessellate":-1,"extrude":0,"visibility":-1,"drawOrder":null,"icon":null,"snippet":"","queueImg":"","latestUser":""},"geometry":{"type":"Point","coordinates":[103.8279432189468,1.429878454792338,0.0]}}
{"_id":{"$oid":"594a086191140e45d06f5593"},"type":"Feature","properties":{"Name":"CENTRAL MEDICAL GROUP PTE LTD","description":"","timestamp":null,"begin":null,"end":null,"altitudeMode":"clampToGround","tessellate":-1,"extrude":0,"visibility":-1,"drawOrder":null,"icon":null,"snippet":"","queueImg":"","latestUser":""},"geometry":{"type":"Point","coordinates":[103.8089633466582,1.286621903718694,0.0]}}
{"_id":{"$oid":"594a086191140e45d06f5594"},"type":"Feature","properties":{"Name":"CHAI CHEE CLINIC \u0026 SURGERY","description":"","timestamp":null,"begin":null,"end":null,"altitudeMode":"clampToGround","tessellate":-1,"extrude":0,"visibility":-1,"drawOrder":null,"icon":null,"snippet":"","queueImg":"","latestUser":""},"geometry":{"type":"Point","coordinates":[103.9241496361959,1.323289599016739,0.0]}}
{"_id":{"$oid":"594a086191140e45d06f5595"},"type":"Feature","properties":{"Name":"CHAN FAMILY CLINIC","description":"","timestamp":null,"begin":null,"end":null,"altitudeMode":"clampToGround","tessellate":-1,"extrude":0,"visibility":-1,"drawOrder":null,"icon":null,"snippet":"","queueImg":"","latestUser":""},"geometry":{"type":"Point","coordinates":[103.901515916912,1.304097311677004,0.0]}}
{"_id":{"$oid":"594a086191140e45d06f5596"},"type":"Feature","properties":{"Name":"CHANG CLINIC","description":"","timestamp":null,"begin":null,"end":null,"altitudeMode":"clampToGround","tessellate":-1,"extrude":0,"visibility":-1,"drawOrder":null,"icon":null,"snippet":"","queueImg":"","latestUser":""},"geometry":{"type":"Point","coordinates":[103.7786000781799,1.338759307727721,0.0]}}
{"_id":{"$oid":"594a086191140e45d06f5597"},"type":"Feature","properties":{"Name":"CHANG CLINIC \u0026 SURGERY","description":"","timestamp":null,"begin":null,"end":null,"altitudeMode":"clampToGround","tessellate":-1,"extrude":0,"visibility":-1,"drawOrder":null,"icon":null,"snippet":"","queueImg":"","latestUser":""},"geometry":{"type":"Point","coordinates":[103.8386804708785,1.276924344574906,0.0]}}
{"_id":{"$oid":"594a086191140e45d06f5598"},"type":"Feature","properties":{"Name":"CHARIS CLINIC \u0026 SURGERY","description":"","timestamp":null,"begin":null,"end":null,"altitudeMode":"clampToGround","tessellate":-1,"extrude":0,"visibility":-1,"drawOrder":null,"icon":null,"snippet":"","queueImg":"","latestUser":""},"geometry":{"type":"Point","coordinates":[103.9460006915004,1.349621514716573,0.0]}}
{"_id":{"$oid":"594a086191140e45d06f5599"},"type":"Feature","properties":{"Name":"CHEN FAMILY CLINIC","description":"","timestamp":null,"begin":null,"end":null,"altitudeMode":"clampToGround","tessellate":-1,"extrude":0,"visibility":-1,"drawOrder":null,"icon":null,"snippet":"","queueImg":"","latestUser":""},"geometry":{"type":"Point","coordinates":[103.8723122983067,1.369950996954474,0.0]}}
{"_id":{"$oid":"594a086191140e45d06f559a"},"type":"Feature","properties":{"Name":"CHENG CLINIC","description":"","timestamp":null,"begin":null,"end":null,"altitudeMode":"clampToGround","tessellate":-1,"extrude":0,"visibility":-1,"drawOrder":null,"icon":null,"snippet":"","queueImg":"","latestUser":""},"geometry":{"type":"Point","coordinates":[103.855967138976,1.36747901395753,0.0]}}
{"_id":{"$oid":"594a086191140e45d06f559b"},"type":"Feature","properties":{"Name":"CHEONG FAMILY CLINIC PTE LTD","description":"","timestamp":null,"begin":null,"end":null,"altitudeMode":"clampToGround","tessellate":-1,"extrude":0,"visibility":-1,"drawOrder":null,"icon":null,"snippet":"","queueImg":"","latestUser":""},"geometry":{"type":"Point","coordinates":[103.8508254761126,1.315595675575263,0.0]}}
{"_id":{"$oid":"594a086191140e45d06f559c"},"type":"Feature","properties":{"Name":"CHEONG MEDICAL CLINIC","description":"","timestamp":null,"begin":null,"end":null,"altitudeMode":"clampToGround","tessellate":-1,"extrude":0,"visibility":-1,"drawOrder":null,"icon":null,"snippet":"","queueImg":"","latestUser":""},"geometry":{"type":"Point","coordinates":[103.7733294474129,1.340548710205961,0.0]}}
{"_id":{"$oid":"594a086191140e45d06f559d"},"type":"Feature","properties":{"Name":"CHERN MEDICAL CLINIC","description":"","timestamp":null,"begin":null,"end":null,"altitudeMode":"clampToGround","tessellate":-1,"extrude":0,"visibility":-1,"drawOrder":null,"icon":null,"snippet":"","queueImg":"","latestUser":""},"geometry":{"type":"Point","coordinates":[103.9455883554887,1.345504505870564,0.0]}}
{"_id":{"$oid":"594a086191140e45d06f559e"},"type":"Feature","properties":{"Name":"CHIA \u0026 LEE MEDICAL \u0026 DENTAL CLINIC","description":"","timestamp":null,"begin":null,"end":null,"altitudeMode":"clampToGround","tessellate":-1,"extrude":0,"visibility":-1,"drawOrder":null,"icon":null,"snippet":"","queueImg":"","latestUser":""},"geometry":{"type":"Point","coordinates":[103.9380340229702,1.346084423871293,0.0]}}
{"_id":{"$oid":"594a086191140e45d06f559f"},"type":"Feature","properties":{"Name":"CHIA CLINIC AND SURGERY","description":"","timestamp":null,"begin":null,"end":null,"altitudeMode":"clampToGround","tessellate":-1,"extrude":0,"visibility":-1,"drawOrder":null,"icon":null,"snippet":"","queueImg":"","latestUser":""},"geometry":{"type":"Point","coordinates":[103.8599687610029,1.312701870760093,0.0]}}
{"_id":{"$oid":"594a086191140e45d06f55a0"},"type":"Feature","properties":{"Name":"CHIEW CLINIC PTE LTD","description":"","timestamp":null,"begin":null,"end":null,"altitudeMode":"clampToGround","tessellate":-1,"extrude":0,"visibility":-1,"drawOrder":null,"icon":null,"snippet":"","queueImg":"","latestUser":""},"geometry":{"type":"Point","coordinates":[103.8849928016902,1.361976029113643,0.0]}}
{"_id":{"$oid":"594a086191140e45d06f55a1"},"type":"Feature","properties":{"Name":"CHIN CHOO CLINIC","description":"","timestamp":null,"begin":null,"end":null,"altitudeMode":"clampToGround","tessellate":-1,"extrude":0,"visibility":-1,"drawOrder":null,"icon":null,"snippet":"","queueImg":"","latestUser":""},"geometry":{"type":"Point","coordinates":[103.8860103161951,1.329158996512704,0.0]}}
{"_id":{"$oid":"594a086191140e45d06f55a2"},"type":"Feature","properties":{"Name":"CHIN LEONG CLINIC","description":"","timestamp":null,"begin":null,"end":null,"altitudeMode":"clampToGround","tessellate":-1,"extrude":0,"visibility":-1,"drawOrder":null,"icon":null,"snippet":"","queueImg":"","latestUser":""},"geometry":{"type":"Point","coordinates":[103.7601572777001,1.307476844031821,0.0]}}
{"_id":{"$oid":"594a086191140e45d06f55a3"},"type":"Feature","properties":{"Name":"CHINATOWN MEDICAL CENTRE","description":"","timestamp":null,"begin":null,"end":null,"altitudeMode":"clampToGround","tessellate":-1,"extrude":0,"visibility":-1,"drawOrder":null,"icon":null,"snippet":"","queueImg":"","latestUser":""},"geometry":{"type":"Point","coordinates":[103.8453044995385,1.284504009811083,0.0]}}
{"_id":{"$oid":"594a086191140e45d06f55a4"},"type":"Feature","properties":{"Name":"CHONG \u0026 LIM FAMILY CLINIC","description":"","timestamp":null,"begin":null,"end":null,"altitudeMode":"clampToGround","tessellate":-1,"extrude":0,"visibility":-1,"drawOrder":null,"icon":null,"snippet":"","queueImg":"","latestUser":""},"geometry":{"type":"Point","coordinates":[103.7685384410676,1.37867070866305,0.0]}}
{"_id":{"$oid":"594a086191140e45d06f55a5"},"type":"Feature","properties":{"Name":"CHONG MEDICAL CLINIC","description":"","timestamp":null,"begin":null,"end":null,"altitudeMode":"clampToGround","tessellate":-1,"extrude":0,"visibility":-1,"drawOrder":null,"icon":null,"snippet":"","queueImg":"","latestUser":""},"geometry":{"type":"Point","coordinates":[103.9198930550601,1.337165074650874,0.0]}}
{"_id":{"$oid":"594a086191140e45d06f55a6"},"type":"Feature","properties":{"Name":"CHONG'S MEDICAL CENTRE","description":"","timestamp":null,"begin":null,"end":null,"altitudeMode":"clampToGround","tessellate":-1,"extrude":0,"visibility":-1,"drawOrder":null,"icon":null,"snippet":"","queueImg":"","latestUser":""},"geometry":{"type":"Point","coordinates":[103.8441113180681,1.298152654183133,0.0]}}
{"_id":{"$oid":"594a086191140e45d06f55a7"},"type":"Feature","properties":{"Name":"FIRST CARE FAMILY CLINIC \u0026 SURGERY","description":"","timestamp":null,"begin":null,"end":null,"altitudeMode":"clampToGround","tessellate":-1,"extrude":0,"visibility":-1,"drawOrder":null,"icon":null,"snippet":"","queueImg":"","latestUser":""},"geometry":{"type":"Point","coordinates":[103.736785753592,1.343188357532831,0.0]}}
{"_id":{"$oid":"594a086191140e45d06f55a8"},"type":"Feature","properties":{"Name":"FIRST MEDICAL CENTRE (YISHUN) PTE LTD","description":"","timestamp":null,"begin":null,"end":null,"altitudeMode":"clampToGround","tessellate":-1,"extrude":0,"visibility":-1,"drawOrder":null,"icon":null,"snippet":"","queueImg":"","latestUser":""},"geometry":{"type":"Point","coordinates":[103.8289933894535,1.433760579742778,0.0]}}
{"_id":{"$oid":"594a086191140e45d06f55a9"},"type":"Feature","properties":{"Name":"FIRST MEDICAL CENTRE PTE LTD","description":"","timestamp":null,"begin":null,"end":null,"altitudeMode":"clampToGround","tessellate":-1,"extrude":0,"visibility":-1,"drawOrder":null,"icon":null,"snippet":"","queueImg":"","latestUser":""},"geometry":{"type":"Point","coordinates":[103.8031059490383,1.29043486494363,0.0]}}
{"_id":{"$oid":"594a086191140e45d06f55aa"},"type":"Feature","properties":{"Name":"FIRST MEDICAL CLINIC \u0026 SURGERY","description":"","timestamp":null,"begin":null,"end":null,"altitudeMode":"clampToGround","tessellate":-1,"extrude":0,"visibility":-1,"drawOrder":null,"icon":null,"snippet":"","queueImg":"","latestUser":""},"geometry":{"type":"Point","coordinates":[103.7758840579736,1.433593706258957,0.0]}}
{"_id":{"$oid":"594a086191140e45d06f55ab"},"type":"Feature","properties":{"Name":"FONG CLINIC","description":"","timestamp":null,"begin":null,"end":null,"altitudeMode":"clampToGround","tessellate":-1,"extrude":0,"visibility":-1,"drawOrder":null,"icon":null,"snippet":"","queueImg":"","latestUser":""},"geometry":{"type":"Point","coordinates":[103.8028569522919,1.292254671702874,0.0]}}
{"_id":{"$oid":"594a086191140e45d06f55ac"},"type":"Feature","properties":{"Name":"FOO CLINIC","description":"","timestamp":null,"begin":null,"end":null,"altitudeMode":"clampToGround","tessellate":-1,"extrude":0,"visibility":-1,"drawOrder":null,"icon":null,"snippet":"","queueImg":"","latestUser":""},"geometry":{"type":"Point","coordinates":[103.6915126494007,1.341809153683961,0.0]}}
{"_id":{"$oid":"594a086191140e45d06f55ad"},"type":"Feature","properties":{"Name":"FRIENDSHIP CLINIC \u0026 SURGERY","description":"","timestamp":null,"begin":null,"end":null,"altitudeMode":"clampToGround","tessellate":-1,"extrude":0,"visibility":-1,"drawOrder":null,"icon":null,"snippet":"","queueImg":"","latestUser":""},"geometry":{"type":"Point","coordinates":[103.8082424000611,1.286453540132801,0.0]}}
{"_id":{"$oid":"594a086191140e45d06f55ae"},"type":"Feature","properties":{"Name":"FRONTIER MEDICAL ASSOCIATES","description":"","timestamp":null,"begin":null,"end":null,"altitudeMode":"clampToGround","tessellate":-1,"extrude":0,"visibility":-1,"drawOrder":null,"icon":null,"snippet":"","queueImg":"","latestUser":""},"geometry":{"type":"Point","coordinates":[103.7510918257821,1.356651467997305,0.0]}}
{"_id":{"$oid":"594a086191140e45d06f55af"},"type":"Feature","properties":{"Name":"FRONTIER MEDICAL ASSOCIATES","description":"","timestamp":null,"begin":null,"end":null,"altitudeMode":"clampToGround","tessellate":-1,"extrude":0,"visibility":-1,"drawOrder":null,"icon":null,"snippet":"","queueImg":"","latestUser":""},"geometry":{"type":"Point","coordinates":[103.8793090940371,1.380850354213963,0.0]}}
{"_id":{"$oid":"594a086191140e45d06f55b0"},"type":"Feature","properties":{"Name":"FRONTIER MEDICAL ASSOCIATES","description":"","timestamp":null,"begin":null,"end":null,"altitudeMode":"clampToGround","tessellate":-1,"extrude":0,"visibility":-1,"drawOrder":null,"icon":null,"snippet":"","queueImg":"","latestUser":""},"geometry":{"type":"Point","coordinates":[103.8381764715176,1.373548539323372,0.0]}}
{"_id":{"$oid":"594a086191140e45d06f55b1"},"type":"Feature","properties":{"Name":"FRONTIER MEDICAL ASSOCIATES","description":"","timestamp":null,"begin":null,"end":null,"altitudeMode":"clampToGround","tessellate":-1,"extrude":0,"visibility":-1,"drawOrder":null,"icon":null,"snippet":"","queueImg":"","latestUser":""},"geometry":{"type":"Point","coordinates":[103.9012286100388,1.329552568140866,0.0]}}
{"_id":{"$oid":"594a086191140e45d06f55b2"},"type":"Feature","properties":{"Name":"HEALTHWERKZ MEDICAL CENTRE @ SEMB MRT","description":"","timestamp":null,"begin":null,"end":null,"altitudeMode":"clampToGround","tessellate":-1,"extrude":0,"visibility":-1,"drawOrder":null,"icon":null,"snippet":"","queueImg":"","latestUser":""},"geometry":{"type":"Point","coordinates":[103.8201394864307,1.449026685214947,0.0]}}
{"_id":{"$oid":"594a086191140e45d06f55b3"},"type":"Feature","properties":{"Name":"HEALTHWISE MEDICAL CLINIC \u0026 SURGERY","description":"","timestamp":null,"begin":null,"end":null,"altitudeMode":"clampToGround","tessellate":-1,"extrude":0,"visibility":-1,"drawOrder":null,"icon":null,"snippet":"","queueImg":"","latestUser":""},"geometry":{"type":"Point","coordinates":[103.8847638458332,1.307827367952069,0.0]}}
{"_id":{"$oid":"594a086191140e45d06f55b4"},"type":"Feature","properties":{"Name":"HL CLINIC PTE LTD","description":"","timestamp":null,"begin":null,"end":null,"altitudeMode":"clampToGround","tessellate":-1,"extrude":0,"visibility":-1,"drawOrder":null,"icon":null,"snippet":"","queueImg":"","latestUser":""},"geometry":{"type":"Point","coordinates":[103.8194084605822,1.277407858968179,0.0]}}
{"_id":{"$oid":"594a086191140e45d06f55b5"},"type":"Feature","properties":{"Name":"HL FAMILY CLINIC \u0026 SURGERY(BEDOK) PTE LTD","description":"","timestamp":null,"begin":null,"end":null,"altitudeMode":"clampToGround","tessellate":-1,"extrude":0,"visibility":-1,"drawOrder":null,"icon":null,"snippet":"","queueImg":"","latestUser":""},"geometry":{"type":"Point","coordinates":[103.9380512848152,1.332334683452512,0.0]}}
{"_id":{"$oid":"594a086191140e45d06f55b6"},"type":"Feature","properties":{"Name":"HO MEDICAL CENTRE PTE LTD","description":"","timestamp":null,"begin":null,"end":null,"altitudeMode":"clampToGround","tessellate":-1,"extrude":0,"visibility":-1,"drawOrder":null,"icon":null,"snippet":"","queueImg":"","latestUser":""},"geometry":{"type":"Point","coordinates":[103.7713505579553,1.314278602625787,0.0]}}
{"_id":{"$oid":"594a086191140e45d06f55b7"},"type":"Feature","properties":{"Name":"HO TONG CLINIC","description":"","timestamp":null,"begin":null,"end":null,"altitudeMode":"clampToGround","tessellate":-1,"extrude":0,"visibility":-1,"drawOrder":null,"icon":null,"snippet":"","queueImg":"","latestUser":""},"geometry":{"type":"Point","coordinates":[103.8860103161951,1.329158996512704,0.0]}}
{"_id":{"$oid":"594a086191140e45d06f55b8"},"type":"Feature","properties":{"Name":"HONG ASSOCIATES CLINIC","description":"","timestamp":null,"begin":null,"end":null,"altitudeMode":"clampToGround","tessellate":-1,"extrude":0,"visibility":-1,"drawOrder":null,"icon":null,"snippet":"","queueImg":"","latestUser":""},"geometry":{"type":"Point","coordinates":[103.8261858544522,1.280321135821575,0.0]}}
{"_id":{"$oid":"594a086191140e45d06f55b9"},"type":"Feature","properties":{"Name":"HONG FAMILY CLINIC","description":"","timestamp":null,"begin":null,"end":null,"altitudeMode":"clampToGround","tessellate":-1,"extrude":0,"visibility":-1,"drawOrder":null,"icon":null,"snippet":"","queueImg":"","latestUser":""},"geometry":{"type":"Point","coordinates":[103.9524367751082,1.347754099146435,0.0]}}
{"_id":{"$oid":"594a086191140e45d06f55ba"},"type":"Feature","properties":{"Name":"HONG'S CLINIC PEOPLE'S PARK CENTRE","description":"","timestamp":null,"begin":null,"end":null,"altitudeMode":"clampToGround","tessellate":-1,"extrude":0,"visibility":-1,"drawOrder":null,"icon":null,"snippet":"","queueImg":"","latestUser":""},"geometry":{"type":"Point","coordinates":[103.8439801230768,1.285770099428676,0.0]}}
{"_id":{"$oid":"594a086191140e45d06f55bb"},"type":"Feature","properties":{"Name":"HOPE FAMILY CLINIC AND SURGERY","description":"","timestamp":null,"begin":null,"end":null,"altitudeMode":"clampToGround","tessellate":-1,"extrude":0,"visibility":-1,"drawOrder":null,"icon":null,"snippet":"","queueImg":"","latestUser":""},"geometry":{"type":"Point","coordinates":[103.790548014868,1.442753332344898,0.0]}}
{"_id":{"$oid":"594a086191140e45d06f55bc"},"type":"Feature","properties":{"Name":"HUA MEI CLINIC, WHAMPOA","description":"","timestamp":null,"begin":null,"end":null,"altitudeMode":"clampToGround","tessellate":-1,"extrude":0,"visibility":-1,"drawOrder":null,"icon":null,"snippet":"","queueImg":"","latestUser":""},"geometry":{"type":"Point","coordinates":[103.857201210738,1.32486749271144,0.0]}}
{"_id":{"$oid":"594a086191140e45d06f55bd"},"type":"Feature","properties":{"Name":"HUAN CLINIC","description":"","timestamp":null,"begin":null,"end":null,"altitudeMode":"clampToGround","tessellate":-1,"extrude":0,"visibility":-1,"drawOrder":null,"icon":null,"snippet":"","queueImg":"","latestUser":""},"geometry":{"type":"Point","coordinates":[103.8420297792515,1.287403008210146,0.0]}}
{"_id":{"$oid":"594a086191140e45d06f55be"},"type":"Feature","properties":{"Name":"HUI CLINIC + SURGERY","description":"","timestamp":null,"begin":null,"end":null,"altitudeMode":"clampToGround","tessellate":-1,"extrude":0,"visibility":-1,"drawOrder":null,"icon":null,"snippet":"","queueImg":"","latestUser":""},"geometry":{"type":"Point","coordinates":[103.8393950713248,1.375305621299849,0.0]}}
{"_id":{"$oid":"594a086191140e45d06f55bf"},"type":"Feature","properties":{"Name":"HWANG \u0026 LIANG FAMILY CLINIC \u0026 SURGERY","description":"","timestamp":null,"begin":null,"end":null,"altitudeMode":"clampToGround","tessellate":-1,"extrude":0,"visibility":-1,"drawOrder":null,"icon":null,"snippet":"","queueImg":"","latestUser":""},"geometry":{"type":"Point","coordinates":[103.95335936462,1.360922839057441,0.0]}}
{"_id":{"$oid":"594a086191140e45d06f55c0"},"type":"Feature","properties":{"Name":"Halley Medical Clinic","description":"","timestamp":null,"begin":null,"end":null,"altitudeMode":"clampToGround","tessellate":-1,"extrude":0,"visibility":-1,"drawOrder":null,"icon":null,"snippet":"","queueImg":"","latestUser":""},"geometry":{"type":"Point","coordinates":[103.879472338027,1.375715306628881,0.0]}}
{"_id":{"$oid":"594a086191140e45d06f55c1"},"type":"Feature","properties":{"Name":"Hamid Family Clinic \u0026 Surgery","description":"","timestamp":null,"begin":null,"end":null,"altitudeMode":"clampToGround","tessellate":-1,"extrude":0,"visibility":-1,"drawOrder":null,"icon":null,"snippet":"","queueImg":"","latestUser":""},"geometry":{"type":"Point","coordinates":[103.9628953496256,1.364083644917084,0.0]}}
{"_id":{"$oid":"594a086191140e45d06f55c2"},"type":"Feature","properties":{"Name":"Health First Family Clinic","description":"","timestamp":null,"begin":null,"end":null,"altitudeMode":"clampToGround","tessellate":-1,"extrude":0,"visibility":-1,"drawOrder":null,"icon":null,"snippet":"","queueImg":"","latestUser":""},"geometry":{"type":"Point","coordinates":[103.8255957532786,1.282634376586643,0.0]}}
{"_id":{"$oid":"594a086191140e45d06f55c3"},"type":"Feature","properties":{"Name":"HealthMatters - The Family Practice","description":"","timestamp":null,"begin":null,"end":null,"altitudeMode":"clampToGround","tessellate":-1,"extrude":0,"visibility":-1,"drawOrder":null,"icon":null,"snippet":"","queueImg":"","latestUser":""},"geometry":{"type":"Point","coordinates":[103.9550364476119,1.376914724966565,0.0]}}
{"_id":{"$oid":"594a086191140e45d06f55c4"},"type":"Feature","properties":{"Name":"HealthMed Family Clinic (Bukit Panjang)","description":"","timestamp":null,"begin":null,"end":null,"altitudeMode":"clampToGround","tessellate":-1,"extrude":0,"visibility":-1,"drawOrder":null,"icon":null,"snippet":"","queueImg":"","latestUser":""},"geometry":{"type":"Point","coordinates":[103.7684541103632,1.383196867204958,0.0]}}
{"_id":{"$oid":"594a086191140e45d06f55c5"},"type":"Feature","properties":{"Name":"Healthcare Hougang Medical Clinic","description":"","timestamp":null,"begin":null,"end":null,"altitudeMode":"clampToGround","tessellate":-1,"extrude":0,"visibility":-1,"drawOrder":null,"icon":null,"snippet":"","queueImg":"","latestUser":""},"geometry":{"type":"Point","coordinates":[103.8948582150184,1.365670730804462,0.0]}}
{"_id":{"$oid":"594a086191140e45d06f55c6"},"type":"Feature","properties":{"Name":"FRONTIER MEDICAL ASSOCIATES","description":"","timestamp":null,"begin":null,"end":null,"altitudeMode":"clampToGround","tessellate":-1,"extrude":0,"visibility":-1,"drawOrder":null,"icon":null,"snippet":"","queueImg":"","latestUser":""},"geometry":{"type":"Point","coordinates":[103.7952612667825,1.436569856208308,0.0]}}
{"_id":{"$oid":"594a086191140e45d06f55c7"},"type":"Feature","properties":{"Name":"FRONTIER MEDICAL ASSOCIATES","description":"","timestamp":null,"begin":null,"end":null,"altitudeMode":"clampToGround","tessellate":-1,"extrude":0,"visibility":-1,"drawOrder":null,"icon":null,"snippet":"","queueImg":"","latestUser":""},"geometry":{"type":"Point","coordinates":[103.8404103127813,1.423053464060816,0.0]}}
{"_id":{"$oid":"594a086191140e45d06f55c8"},"type":"Feature","properties":{"Name":"FULLERTON HEALTH @ DRS TRYTHALL HOY DAVIES","description":"","timestamp":null,"begin":null,"end":null,"altitudeMode":"clampToGround","tessellate":-1,"extrude":0,"visibility":-1,"drawOrder":null,"icon":null,"snippet":"","queueImg":"","latestUser":""},"geometry":{"type":"Point","coordinates":[103.8353556159593,1.302440650739032,0.0]}}
{"_id":{"$oid":"594a086191140e45d06f55c9"},"type":"Feature","properties":{"Name":"Famicare Bedok Clinic","description":"","timestamp":null,"begin":null,"end":null,"altitudeMode":"clampToGround","tessellate":-1,"extrude":0,"visibility":-1,"drawOrder":null,"icon":null,"snippet":"","queueImg":"","latestUser":""},"geometry":{"type":"Point","coordinates":[103.9450867434024,1.318735826725944,0.0]}}
{"_id":{"$oid":"594a086191140e45d06f55ca"},"type":"Feature","properties":{"Name":"Family Doctors at 365","description":"","timestamp":null,"begin":null,"end":null,"altitudeMode":"clampToGround","tessellate":-1,"extrude":0,"visibility":-1,"drawOrder":null,"icon":null,"snippet":"","queueImg":"","latestUser":""},"geometry":{"type":"Point","coordinates":[103.7201847194069,1.337725927484385,0.0]}}
{"_id":{"$oid":"594a086191140e45d06f55cb"},"type":"Feature","properties":{"Name":"Family Medicine Clinic Chinatown","description":"","timestamp":null,"begin":null,"end":null,"altitudeMode":"clampToGround","tessellate":-1,"extrude":0,"visibility":-1,"drawOrder":null,"icon":null,"snippet":"","queueImg":"","latestUser":""},"geometry":{"type":"Point","coordinates":[103.8446970809024,1.284998828618636,0.0]}}
{"_id":{"$oid":"594a086191140e45d06f55cc"},"type":"Feature","properties":{"Name":"Fernvale Family Clinic","description":"","timestamp":null,"begin":null,"end":null,"altitudeMode":"clampToGround","tessellate":-1,"extrude":0,"visibility":-1,"drawOrder":null,"icon":null,"snippet":"","queueImg":"","latestUser":""},"geometry":{"type":"Point","coordinates":[103.8734374030619,1.389194666502732,0.0]}}
{"_id":{"$oid":"594a086191140e45d06f55cd"},"type":"Feature","properties":{"Name":"First Light Family Clinic \u0026 Surgery","description":"","timestamp":null,"begin":null,"end":null,"altitudeMode":"clampToGround","tessellate":-1,"extrude":0,"visibility":-1,"drawOrder":null,"icon":null,"snippet":"","queueImg":"","latestUser":""},"geometry":{"type":"Point","coordinates":[103.7578647182341,1.348790306707476,0.0]}}
{"_id":{"$oid":"594a086191140e45d06f55ce"},"type":"Feature","properties":{"Name":"Foo And Ong Family Clinic Pte. Ltd.","description":"","timestamp":null,"begin":null,"end":null,"altitudeMode":"clampToGround","tessellate":-1,"extrude":0,"visibility":-1,"drawOrder":null,"icon":null,"snippet":"","queueImg":"","latestUser":""},"geometry":{"type":"Point","coordinates":[103.7442114843675,1.348747034988463,0.0]}}
{"_id":{"$oid":"594a086191140e45d06f55cf"},"type":"Feature","properties":{"Name":"Frontier Family Medicine Clinic","description":"","timestamp":null,"begin":null,"end":null,"altitudeMode":"clampToGround","tessellate":-1,"extrude":0,"visibility":-1,"drawOrder":null,"icon":null,"snippet":"","queueImg":"","latestUser":""},"geometry":{"type":"Point","coordinates":[103.7651474872602,1.314270439054068,0.0]}}
{"_id":{"$oid":"594a086191140e45d06f55d0"},"type":"Feature","properties":{"Name":"Frontier Medical Associates","description":"","timestamp":null,"begin":null,"end":null,"altitudeMode":"clampToGround","tessellate":-1,"extrude":0,"visibility":-1,"drawOrder":null,"icon":null,"snippet":"","queueImg":"","latestUser":""},"geometry":{"type":"Point","coordinates":[103.7033953563567,1.344864895161059,0.0]}}
{"_id":{"$oid":"594a086191140e45d06f55d1"},"type":"Feature","properties":{"Name":"Frontier Medical Associates","description":"","timestamp":null,"begin":null,"end":null,"altitudeMode":"clampToGround","tessellate":-1,"extrude":0,"visibility":-1,"drawOrder":null,"icon":null,"snippet":"","queueImg":"","latestUser":""},"geometry":{"type":"Point","coordinates":[103.8276797247696,1.28994619034793,0.0]}}
{"_id":{"$oid":"594a086191140e45d06f55d2"},"type":"Feature","properties":{"Name":"Frontier People's Clinic","description":"","timestamp":null,"begin":null,"end":null,"altitudeMode":"clampToGround","tessellate":-1,"extrude":0,"visibility":-1,"drawOrder":null,"icon":null,"snippet":"","queueImg":"","latestUser":""},"geometry":{"type":"Point","coordinates":[103.9373433481323,1.329198686332391,0.0]}}
{"_id":{"$oid":"594a086191140e45d06f55d3"},"type":"Feature","properties":{"Name":"HEALTHBRIDGE FAMILY CLINIC","description":"","timestamp":null,"begin":null,"end":null,"altitudeMode":"clampToGround","tessellate":-1,"extrude":0,"visibility":-1,"drawOrder":null,"icon":null,"snippet":"","queueImg":"","latestUser":""},"geometry":{"type":"Point","coordinates":[103.904471600382,1.392197778147631,0.0]}}
{"_id":{"$oid":"594a086191140e45d06f55d4"},"type":"Feature","properties":{"Name":"HEALTHCARE FAMILY CLINIC \u0026 SURGERY","description":"","timestamp":null,"begin":null,"end":null,"altitudeMode":"clampToGround","tessellate":-1,"extrude":0,"visibility":-1,"drawOrder":null,"icon":null,"snippet":"","queueImg":"","latestUser":""},"geometry":{"type":"Point","coordinates":[103.8335979992837,1.362873592650451,0.0]}}
{"_id":{"$oid":"594a086191140e45d06f55d5"},"type":"Feature","properties":{"Name":"HEALTHCARE MEDICAL @ Kovan","description":"","timestamp":null,"begin":null,"end":null,"altitudeMode":"clampToGround","tessellate":-1,"extrude":0,"visibility":-1,"drawOrder":null,"icon":null,"snippet":"","queueImg":"","latestUser":""},"geometry":{"type":"Point","coordinates":[103.8866361109506,1.358696799211318,0.0]}}
{"_id":{"$oid":"594a086191140e45d06f55d6"},"type":"Feature","properties":{"Name":"HEALTHCARE MEDICAL @ RAILMALL","description":"","timestamp":null,"begin":null,"end":null,"altitudeMode":"clampToGround","tessellate":-1,"extrude":0,"visibility":-1,"drawOrder":null,"icon":null,"snippet":"","queueImg":"","latestUser":""},"geometry":{"type":"Point","coordinates":[103.7676042042707,1.359609839794767,0.0]}}
{"_id":{"$oid":"594a086191140e45d06f55d7"},"type":"Feature","properties":{"Name":"HEALTHLINE FAMILY CLINIC \u0026 SURGERY PTE. LTD.","description":"","timestamp":null,"begin":null,"end":null,"altitudeMode":"clampToGround","tessellate":-1,"extrude":0,"visibility":-1,"drawOrder":null,"icon":null,"snippet":"","queueImg":"","latestUser":""},"geometry":{"type":"Point","coordinates":[103.9241496361959,1.323289599016739,0.0]}}
{"_id":{"$oid":"594a086191140e45d06f55d8"},"type":"Feature","properties":{"Name":"HEALTHLINK MEDICAL CLINIC \u0026 SURGERY","description":"","timestamp":null,"begin":null,"end":null,"altitudeMode":"clampToGround","tessellate":-1,"extrude":0,"visibility":-1,"drawOrder":null,"icon":null,"snippet":"","queueImg":"","latestUser":""},"geometry":{"type":"Point","coordinates":[103.8798984741891,1.333728660236352,0.0]}}
{"_id":{"$oid":"594a086191140e45d06f55d9"},"type":"Feature","properties":{"Name":"HEALTHMARK CLINIC (PASIR RIS)","description":"","timestamp":null,"begin":null,"end":null,"altitudeMode":"clampToGround","tessellate":-1,"extrude":0,"visibility":-1,"drawOrder":null,"icon":null,"snippet":"","queueImg":"","latestUser":""},"geometry":{"type":"Point","coordinates":[103.9365746135556,1.379668120783623,0.0]}}
{"_id":{"$oid":"594a086191140e45d06f55da"},"type":"Feature","properties":{"Name":"HEALTHMARK FAMILY CLINIC (WATERWAY)","description":"","timestamp":null,"begin":null,"end":null,"altitudeMode":"clampToGround","tessellate":-1,"extrude":0,"visibility":-1,"drawOrder":null,"icon":null,"snippet":"","queueImg":"","latestUser":""},"geometry":{"type":"Point","coordinates":[103.9119912774451,1.405660480847173,0.0]}}
{"_id":{"$oid":"594a086191140e45d06f55db"},"type":"Feature","properties":{"Name":"HEALTHPLUS CLINIC \u0026 SURGERY","description":"","timestamp":null,"begin":null,"end":null,"altitudeMode":"clampToGround","tessellate":-1,"extrude":0,"visibility":-1,"drawOrder":null,"icon":null,"snippet":"","queueImg":"","latestUser":""},"geometry":{"type":"Point","coordinates":[103.9149418311486,1.332959235483872,0.0]}}
{"_id":{"$oid":"594a086191140e45d06f55dc"},"type":"Feature","properties":{"Name":"HEALTHPLUS FAMILY CLINIC \u0026 SURGERY","description":"","timestamp":null,"begin":null,"end":null,"altitudeMode":"clampToGround","tessellate":-1,"extrude":0,"visibility":-1,"drawOrder":null,"icon":null,"snippet":"","queueImg":"","latestUser":""},"geometry":{"type":"Point","coordinates":[103.808980553653,1.273387515294414,0.0]}}
{"_id":{"$oid":"594a086191140e45d06f55dd"},"type":"Feature","properties":{"Name":"HEALTHPOINT FAMILY CLINIC \u0026 SURGERY PTE LTD","description":"","timestamp":null,"begin":null,"end":null,"altitudeMode":"clampToGround","tessellate":-1,"extrude":0,"visibility":-1,"drawOrder":null,"icon":null,"snippet":"","queueImg":"","latestUser":""},"geometry":{"type":"Point","coordinates":[103.7976261512033,1.300789009139842,0.0]}}
{"_id":{"$oid":"594a086191140e45d06f55de"},"type":"Feature","properties":{"Name":"HEALTHWAY MEDICAL CENTRE","description":"","timestamp":null,"begin":null,"end":null,"altitudeMode":"clampToGround","tessellate":-1,"extrude":0,"visibility":-1,"drawOrder":null,"icon":null,"snippet":"","queueImg":"","latestUser":""},"geometry":{"type":"Point","coordinates":[103.846329063086,1.424385067790721,0.0]}}
{"_id":{"$oid":"594a086191140e45d06f55df"},"type":"Feature","properties":{"Name":"HEALTHWAY MEDICAL CLINIC","description":"","timestamp":null,"begin":null,"end":null,"altitudeMode":"clampToGround","tessellate":-1,"extrude":0,"visibility":-1,"drawOrder":null,"icon":null,"snippet":"","queueImg":"","latestUser":""},"geometry":{"type":"Point","coordinates":[103.706710011276,1.341186885329158,0.0]}}
{"_id":{"$oid":"594a086191140e45d06f55e0"},"type":"Feature","properties":{"Name":"HEALTHWAY MEDICAL CLINIC","description":"","timestamp":null,"begin":null,"end":null,"altitudeMode":"clampToGround","tessellate":-1,"extrude":0,"visibility":-1,"drawOrder":null,"icon":null,"snippet":"","queueImg":"","latestUser":""},"geometry":{"type":"Point","coordinates":[103.9108536229034,1.323653452602746,0.0]}}
{"_id":{"$oid":"594a086191140e45d06f55e1"},"type":"Feature","properties":{"Name":"HEALTHWAY MEDICAL CLINIC","description":"","timestamp":null,"begin":null,"end":null,"altitudeMode":"clampToGround","tessellate":-1,"extrude":0,"visibility":-1,"drawOrder":null,"icon":null,"snippet":"","queueImg":"","latestUser":""},"geometry":{"type":"Point","coordinates":[103.886898456404,1.373958404728499,0.0]}}
{"_id":{"$oid":"594a086191140e45d06f55e2"},"type":"Feature","properties":{"Name":"HEALTHWAY MEDICAL CLINIC","description":"","timestamp":null,"begin":null,"end":null,"altitudeMode":"clampToGround","tessellate":-1,"extrude":0,"visibility":-1,"drawOrder":null,"icon":null,"snippet":"","queueImg":"","latestUser":""},"geometry":{"type":"Point","coordinates":[103.8481497430753,1.278266143296757,0.0]}}
{"_id":{"$oid":"594a086191140e45d06f55e3"},"type":"Feature","properties":{"Name":"HEALTHWAY MEDICAL CLINIC","description":"","timestamp":null,"begin":null,"end":null,"altitudeMode":"clampToGround","tessellate":-1,"extrude":0,"visibility":-1,"drawOrder":null,"icon":null,"snippet":"","queueImg":"","latestUser":""},"geometry":{"type":"Point","coordinates":[103.7934635308558,1.307620048684336,0.0]}}
{"_id":{"$oid":"594a086191140e45d06f55e4"},"type":"Feature","properties":{"Name":"HEALTHWAY MEDICAL CLINIC","description":"","timestamp":null,"begin":null,"end":null,"altitudeMode":"clampToGround","tessellate":-1,"extrude":0,"visibility":-1,"drawOrder":null,"icon":null,"snippet":"","queueImg":"","latestUser":""},"geometry":{"type":"Point","coordinates":[103.8610874628648,1.319425390447603,0.0]}}
{"_id":{"$oid":"594a086191140e45d06f55e5"},"type":"Feature","properties":{"Name":"HEALTHWAY MEDICAL CLINIC","description":"","timestamp":null,"begin":null,"end":null,"altitudeMode":"clampToGround","tessellate":-1,"extrude":0,"visibility":-1,"drawOrder":null,"icon":null,"snippet":"","queueImg":"","latestUser":""},"geometry":{"type":"Point","coordinates":[103.9492650840468,1.373008050431847,0.0]}}
{"_id":{"$oid":"594a086191140e45d06f55e6"},"type":"Feature","properties":{"Name":"HEALTHWAY MEDICAL CLINIC","description":"","timestamp":null,"begin":null,"end":null,"altitudeMode":"clampToGround","tessellate":-1,"extrude":0,"visibility":-1,"drawOrder":null,"icon":null,"snippet":"","queueImg":"","latestUser":""},"geometry":{"type":"Point","coordinates":[103.9535864914605,1.352262314348677,0.0]}}
{"_id":{"$oid":"594a086191140e45d06f55e7"},"type":"Feature","properties":{"Name":"HEALTHWAY MEDICAL CLINIC","description":"","timestamp":null,"begin":null,"end":null,"altitudeMode":"clampToGround","tessellate":-1,"extrude":0,"visibility":-1,"drawOrder":null,"icon":null,"snippet":"","queueImg":"","latestUser":""},"geometry":{"type":"Point","coordinates":[103.8276677221333,1.430535753885056,0.0]}}
{"_id":{"$oid":"594a086191140e45d06f55e8"},"type":"Feature","properties":{"Name":"HEALTHWAY MEDICAL CLINIC","description":"","timestamp":null,"begin":null,"end":null,"altitudeMode":"clampToGround","tessellate":-1,"extrude":0,"visibility":-1,"drawOrder":null,"icon":null,"snippet":"","queueImg":"","latestUser":""},"geometry":{"type":"Point","coordinates":[103.7427664896947,1.334157520217129,0.0]}}
{"_id":{"$oid":"594a086191140e45d06f55e9"},"type":"Feature","properties":{"Name":"HEALTHWAY MEDICAL CLINIC","description":"","timestamp":null,"begin":null,"end":null,"altitudeMode":"clampToGround","tessellate":-1,"extrude":0,"visibility":-1,"drawOrder":null,"icon":null,"snippet":"","queueImg":"","latestUser":""},"geometry":{"type":"Point","coordinates":[103.9012623916363,1.402303013394032,0.0]}}
{"_id":{"$oid":"594a086191140e45d06f55ea"},"type":"Feature","properties":{"Name":"HEALTHWAY MEDICAL CLINIC","description":"","timestamp":null,"begin":null,"end":null,"altitudeMode":"clampToGround","tessellate":-1,"extrude":0,"visibility":-1,"drawOrder":null,"icon":null,"snippet":"","queueImg":"","latestUser":""},"geometry":{"type":"Point","coordinates":[103.8334504792178,1.427518982250333,0.0]}}
{"_id":{"$oid":"594a086191140e45d06f55eb"},"type":"Feature","properties":{"Name":"HEALTHWAY MEDICAL CLINIC","description":"","timestamp":null,"begin":null,"end":null,"altitudeMode":"clampToGround","tessellate":-1,"extrude":0,"visibility":-1,"drawOrder":null,"icon":null,"snippet":"","queueImg":"","latestUser":""},"geometry":{"type":"Point","coordinates":[103.8487049635356,1.332979134435399,0.0]}}
{"_id":{"$oid":"594a086191140e45d06f55ec"},"type":"Feature","properties":{"Name":"HEALTHWAY MEDICAL CLINIC","description":"","timestamp":null,"begin":null,"end":null,"altitudeMode":"clampToGround","tessellate":-1,"extrude":0,"visibility":-1,"drawOrder":null,"icon":null,"snippet":"","queueImg":"","latestUser":""},"geometry":{"type":"Point","coordinates":[103.8195021274793,1.448195354150859,0.0]}}
{"_id":{"$oid":"594a086191140e45d06f55ed"},"type":"Feature","properties":{"Name":"Healthmark Family Clinic (Compassvale)","description":"","timestamp":null,"begin":null,"end":null,"altitudeMode":"clampToGround","tessellate":-1,"extrude":0,"visibility":-1,"drawOrder":null,"icon":null,"snippet":"","queueImg":"","latestUser":""},"geometry":{"type":"Point","coordinates":[103.8960422679393,1.394848164977562,0.0]}}
{"_id":{"$oid":"594a086191140e45d06f55ee"},"type":"Feature","properties":{"Name":"Healthmark Family Medicine Clinic","description":"","timestamp":null,"begin":null,"end":null,"altitudeMode":"clampToGround","tessellate":-1,"extrude":0,"visibility":-1,"drawOrder":null,"icon":null,"snippet":"","queueImg":"","latestUser":""},"geometry":{"type":"Point","coordinates":[103.7449217362824,1.396933630375964,0.0]}}
{"_id":{"$oid":"594a086191140e45d06f55ef"},"type":"Feature","properties":{"Name":"Healthmark Medical Clinic","description":"","timestamp":null,"begin":null,"end":null,"altitudeMode":"clampToGround","tessellate":-1,"extrude":0,"visibility":-1,"drawOrder":null,"icon":null,"snippet":"","queueImg":"","latestUser":""},"geometry":{"type":"Point","coordinates":[103.9160546527992,1.39944615058876,0.0]}}
{"_id":{"$oid":"594a086191140e45d06f55f0"},"type":"Feature","properties":{"Name":"Healthmark Pioneer Mall Clinic","description":"","timestamp":null,"begin":null,"end":null,"altitudeMode":"clampToGround","tessellate":-1,"extrude":0,"visibility":-1,"drawOrder":null,"icon":null,"snippet":"","queueImg":"","latestUser":""},"geometry":{"type":"Point","coordinates":[103.6971748423536,1.341692392378392,0.0]}}
{"_id":{"$oid":"594a086191140e45d06f55f1"},"type":"Feature","properties":{"Name":"Healthpath Medical Clinic and Surgery","description":"","timestamp":null,"begin":null,"end":null,"altitudeMode":"clampToGround","tessellate":-1,"extrude":0,"visibility":-1,"drawOrder":null,"icon":null,"snippet":"","queueImg":"","latestUser":""},"geometry":{"type":"Point","coordinates":[103.8489869574234,1.363895701943269,0.0]}}
{"_id":{"$oid":"594a086191140e45d06f55f2"},"type":"Feature","properties":{"Name":"Healthway Compassvale Clinic","description":"","timestamp":null,"begin":null,"end":null,"altitudeMode":"clampToGround","tessellate":-1,"extrude":0,"visibility":-1,"drawOrder":null,"icon":null,"snippet":"","queueImg":"","latestUser":""},"geometry":{"type":"Point","coordinates":[103.8970465568902,1.383744417912537,0.0]}}
{"_id":{"$oid":"594a086191140e45d06f55f3"},"type":"Feature","properties":{"Name":"Healthway Hougang Central Clinic","description":"","timestamp":null,"begin":null,"end":null,"altitudeMode":"clampToGround","tessellate":-1,"extrude":0,"visibility":-1,"drawOrder":null,"icon":null,"snippet":"","queueImg":"","latestUser":""},"geometry":{"type":"Point","coordinates":[103.8937755625905,1.37249493836103,0.0]}}
{"_id":{"$oid":"594a086191140e45d06f55f4"},"type":"Feature","properties":{"Name":"Healthway Medical Centre","description":"","timestamp":null,"begin":null,"end":null,"altitudeMode":"clampToGround","tessellate":-1,"extrude":0,"visibility":-1,"drawOrder":null,"icon":null,"snippet":"","queueImg":"","latestUser":""},"geometry":{"type":"Point","coordinates":[103.8438506307252,1.319967484271726,0.0]}}
{"_id":{"$oid":"594a086191140e45d06f55f5"},"type":"Feature","properties":{"Name":"Healthway Punggol Clinic","description":"","timestamp":null,"begin":null,"end":null,"altitudeMode":"clampToGround","tessellate":-1,"extrude":0,"visibility":-1,"drawOrder":null,"icon":null,"snippet":"","queueImg":"","latestUser":""},"geometry":{"type":"Point","coordinates":[103.9130473233523,1.394237196589209,0.0]}}
{"_id":{"$oid":"594a086191140e45d06f55f6"},"type":"Feature","properties":{"Name":"Healthway Tampines Central Clinic","description":"","timestamp":null,"begin":null,"end":null,"altitudeMode":"clampToGround","tessellate":-1,"extrude":0,"visibility":-1,"drawOrder":null,"icon":null,"snippet":"","queueImg":"","latestUser":""},"geometry":{"type":"Point","coordinates":[103.9451029469458,1.355803356475273,0.0]}}
{"_id":{"$oid":"594a086191140e45d06f55f7"},"type":"Feature","properties":{"Name":"Healthway Toa Payoh Clinic","description":"","timestamp":null,"begin":null,"end":null,"altitudeMode":"clampToGround","tessellate":-1,"extrude":0,"visibility":-1,"drawOrder":null,"icon":null,"snippet":"","queueImg":"","latestUser":""},"geometry":{"type":"Point","coordinates":[103.8488548180268,1.333900340900321,0.0]}}
{"_id":{"$oid":"594a086191140e45d06f55f8"},"type":"Feature","properties":{"Name":"Healthway West Coast Clinic","description":"","timestamp":null,"begin":null,"end":null,"altitudeMode":"clampToGround","tessellate":-1,"extrude":0,"visibility":-1,"drawOrder":null,"icon":null,"snippet":"","queueImg":"","latestUser":""},"geometry":{"type":"Point","coordinates":[103.7640819620597,1.304287107436937,0.0]}}
{"_id":{"$oid":"594a086191140e45d06f55f9"},"type":"Feature","properties":{"Name":"Healthwerkz Medical Centre (CCK)","description":"","timestamp":null,"begin":null,"end":null,"altitudeMode":"clampToGround","tessellate":-1,"extrude":0,"visibility":-1,"drawOrder":null,"icon":null,"snippet":"","queueImg":"","latestUser":""},"geometry":{"type":"Point","coordinates":[103.7448895936545,1.381090653461614,0.0]}}
{"_id":{"$oid":"594a086191140e45d06f55fa"},"type":"Feature","properties":{"Name":"Healthwerkz medical centre @ orchard","description":"","timestamp":null,"begin":null,"end":null,"altitudeMode":"clampToGround","tessellate":-1,"extrude":0,"visibility":-1,"drawOrder":null,"icon":null,"snippet":"","queueImg":"","latestUser":""},"geometry":{"type":"Point","coordinates":[103.8321281737943,1.306547047020073,0.0]}}
{"_id":{"$oid":"594a086191140e45d06f55fb"},"type":"Feature","properties":{"Name":"Heartland Family Clinic","description":"","timestamp":null,"begin":null,"end":null,"altitudeMode":"clampToGround","tessellate":-1,"extrude":0,"visibility":-1,"drawOrder":null,"icon":null,"snippet":"","queueImg":"","latestUser":""},"geometry":{"type":"Point","coordinates":[103.8457901905731,1.431889987258031,0.0]}}
{"_id":{"$oid":"594a086191140e45d06f55fc"},"type":"Feature","properties":{"Name":"Hill Spring Medical","description":"","timestamp":null,"begin":null,"end":null,"altitudeMode":"clampToGround","tessellate":-1,"extrude":0,"visibility":-1,"drawOrder":null,"icon":null,"snippet":"","queueImg":"","latestUser":""},"geometry":{"type":"Point","coordinates":[103.8291755446682,1.371547151756982,0.0]}}
{"_id":{"$oid":"594a086191140e45d06f55fd"},"type":"Feature","properties":{"Name":"Hisemainn Medical Clinic (Bukit Batok)","description":"","timestamp":null,"begin":null,"end":null,"altitudeMode":"clampToGround","tessellate":-1,"extrude":0,"visibility":-1,"drawOrder":null,"icon":null,"snippet":"","queueImg":"","latestUser":""},"geometry":{"type":"Point","coordinates":[103.759431387572,1.344170293718981,0.0]}}
{"_id":{"$oid":"594a086191140e45d06f55fe"},"type":"Feature","properties":{"Name":"Hisemainn Medical Clinic (Jurong West)","description":"","timestamp":null,"begin":null,"end":null,"altitudeMode":"clampToGround","tessellate":-1,"extrude":0,"visibility":-1,"drawOrder":null,"icon":null,"snippet":"","queueImg":"","latestUser":""},"geometry":{"type":"Point","coordinates":[103.7037306859114,1.353609727586543,0.0]}}
{"_id":{"$oid":"594a086191140e45d06f55ff"},"type":"Feature","properties":{"Name":"Hisemainn Medical Clinic (Sims Place)","description":"","timestamp":null,"begin":null,"end":null,"altitudeMode":"clampToGround","tessellate":-1,"extrude":0,"visibility":-1,"drawOrder":null,"icon":null,"snippet":"","queueImg":"","latestUser":""},"geometry":{"type":"Point","coordinates":[103.8794395103949,1.317755598180267,0.0]}}
{"_id":{"$oid":"594a086191140e45d06f5600"},"type":"Feature","properties":{"Name":"Dover Clinic and Surgery Pte Ltd","description":"","timestamp":null,"begin":null,"end":null,"altitudeMode":"clampToGround","tessellate":-1,"extrude":0,"visibility":-1,"drawOrder":null,"icon":null,"snippet":"","queueImg":"","latestUser":""},"geometry":{"type":"Point","coordinates":[103.7817796967864,1.304460926846553,0.0]}}
{"_id":{"$oid":"594a086191140e45d06f5601"},"type":"Feature","properties":{"Name":"Dr Gary's Family Clinic","description":"","timestamp":null,"begin":null,"end":null,"altitudeMode":"clampToGround","tessellate":-1,"extrude":0,"visibility":-1,"drawOrder":null,"icon":null,"snippet":"","queueImg":"","latestUser":""},"geometry":{"type":"Point","coordinates":[103.8267644539026,1.291134836478261,0.0]}}
{"_id":{"$oid":"594a086191140e45d06f5602"},"type":"Feature","properties":{"Name":"Dr Jeremy Chan Medical Clinic","description":"","timestamp":null,"begin":null,"end":null,"altitudeMode":"clampToGround","tessellate":-1,"extrude":0,"visibility":-1,"drawOrder":null,"icon":null,"snippet":"","queueImg":"","latestUser":""},"geometry":{"type":"Point","coordinates":[103.8457038445486,1.338649017780901,0.0]}}
{"_id":{"$oid":"594a086191140e45d06f5603"},"type":"Feature","properties":{"Name":"Dr Nah \u0026 Lee Family Clinic","description":"","timestamp":null,"begin":null,"end":null,"altitudeMode":"clampToGround","tessellate":-1,"extrude":0,"visibility":-1,"drawOrder":null,"icon":null,"snippet":"","queueImg":"","latestUser":""},"geometry":{"type":"Point","coordinates":[103.8010571435644,1.448341550184782,0.0]}}
{"_id":{"$oid":"594a086191140e45d06f5604"},"type":"Feature","properties":{"Name":"Dr Steven Ang Aesthetic \u0026 Family Clinic","description":"","timestamp":null,"begin":null,"end":null,"altitudeMode":"clampToGround","tessellate":-1,"extrude":0,"visibility":-1,"drawOrder":null,"icon":null,"snippet":"","queueImg":"","latestUser":""},"geometry":{"type":"Point","coordinates":[103.815711568942,1.288464768482514,0.0]}}
{"_id":{"$oid":"594a086191140e45d06f5605"},"type":"Feature","properties":{"Name":"Dr W.K. Koo \u0026 Associates P.L.","description":"","timestamp":null,"begin":null,"end":null,"altitudeMode":"clampToGround","tessellate":-1,"extrude":0,"visibility":-1,"drawOrder":null,"icon":null,"snippet":"","queueImg":"","latestUser":""},"geometry":{"type":"Point","coordinates":[103.7066850126357,1.339452716890063,0.0]}}
{"_id":{"$oid":"594a086191140e45d06f5606"},"type":"Feature","properties":{"Name":"Dr. Tan \u0026 Partners","description":"","timestamp":null,"begin":null,"end":null,"altitudeMode":"clampToGround","tessellate":-1,"extrude":0,"visibility":-1,"drawOrder":null,"icon":null,"snippet":"","queueImg":"","latestUser":""},"geometry":{"type":"Point","coordinates":[103.8533561591969,1.301662162182541,0.0]}}
{"_id":{"$oid":"594a086191140e45d06f5607"},"type":"Feature","properties":{"Name":"Dr. Tan \u0026 Partners @ Katong","description":"","timestamp":null,"begin":null,"end":null,"altitudeMode":"clampToGround","tessellate":-1,"extrude":0,"visibility":-1,"drawOrder":null,"icon":null,"snippet":"","queueImg":"","latestUser":""},"geometry":{"type":"Point","coordinates":[103.9065597760123,1.30676781303139,0.0]}}
{"_id":{"$oid":"594a086191140e45d06f5608"},"type":"Feature","properties":{"Name":"Dr.W Family Clinic","description":"","timestamp":null,"begin":null,"end":null,"altitudeMode":"clampToGround","tessellate":-1,"extrude":0,"visibility":-1,"drawOrder":null,"icon":null,"snippet":"","queueImg":"","latestUser":""},"geometry":{"type":"Point","coordinates":[103.8053738122856,1.316411900705197,0.0]}}
{"_id":{"$oid":"594a086191140e45d06f5609"},"type":"Feature","properties":{"Name":"Drs Koo, Fok \u0026 Associates( Pioneer )","description":"","timestamp":null,"begin":null,"end":null,"altitudeMode":"clampToGround","tessellate":-1,"extrude":0,"visibility":-1,"drawOrder":null,"icon":null,"snippet":"","queueImg":"","latestUser":""},"geometry":{"type":"Point","coordinates":[103.6973152771332,1.337551062792556,0.0]}}
{"_id":{"$oid":"594a086191140e45d06f560a"},"type":"Feature","properties":{"Name":"Duxton Medical Clinic","description":"","timestamp":null,"begin":null,"end":null,"altitudeMode":"clampToGround","tessellate":-1,"extrude":0,"visibility":-1,"drawOrder":null,"icon":null,"snippet":"","queueImg":"","latestUser":""},"geometry":{"type":"Point","coordinates":[103.8431177434497,1.277120121923482,0.0]}}
{"_id":{"$oid":"594a086191140e45d06f560b"},"type":"Feature","properties":{"Name":"E MEDICAL CLINIC \u0026 SURGERY","description":"","timestamp":null,"begin":null,"end":null,"altitudeMode":"clampToGround","tessellate":-1,"extrude":0,"visibility":-1,"drawOrder":null,"icon":null,"snippet":"","queueImg":"","latestUser":""},"geometry":{"type":"Point","coordinates":[103.8451308520414,1.337814656643516,0.0]}}
{"_id":{"$oid":"594a086191140e45d06f560c"},"type":"Feature","properties":{"Name":"E. L. CHIN FAMILY CLINIC \u0026 SURGERY PTE. LTD.","description":"","timestamp":null,"begin":null,"end":null,"altitudeMode":"clampToGround","tessellate":-1,"extrude":0,"visibility":-1,"drawOrder":null,"icon":null,"snippet":"","queueImg":"","latestUser":""},"geometry":{"type":"Point","coordinates":[103.7627405876742,1.314020576475998,0.0]}}
{"_id":{"$oid":"594a086191140e45d06f560d"},"type":"Feature","properties":{"Name":"E.C. NG MEDICAL CENTRE","description":"","timestamp":null,"begin":null,"end":null,"altitudeMode":"clampToGround","tessellate":-1,"extrude":0,"visibility":-1,"drawOrder":null,"icon":null,"snippet":"","queueImg":"","latestUser":""},"geometry":{"type":"Point","coordinates":[103.8569246814786,1.312915639966074,0.0]}}
{"_id":{"$oid":"594a086191140e45d06f560e"},"type":"Feature","properties":{"Name":"E.J. TAN CLINIC \u0026 SURGERY","description":"","timestamp":null,"begin":null,"end":null,"altitudeMode":"clampToGround","tessellate":-1,"extrude":0,"visibility":-1,"drawOrder":null,"icon":null,"snippet":"","queueImg":"","latestUser":""},"geometry":{"type":"Point","coordinates":[103.7376233035778,1.336584653416019,0.0]}}
{"_id":{"$oid":"594a086191140e45d06f560f"},"type":"Feature","properties":{"Name":"EAST COAST FAMILY CLINIC","description":"","timestamp":null,"begin":null,"end":null,"altitudeMode":"clampToGround","tessellate":-1,"extrude":0,"visibility":-1,"drawOrder":null,"icon":null,"snippet":"","queueImg":"","latestUser":""},"geometry":{"type":"Point","coordinates":[103.8944460702606,1.297692662678556,0.0]}}
{"_id":{"$oid":"594a086191140e45d06f5610"},"type":"Feature","properties":{"Name":"EAST COAST MEDICAL CENTRE","description":"","timestamp":null,"begin":null,"end":null,"altitudeMode":"clampToGround","tessellate":-1,"extrude":0,"visibility":-1,"drawOrder":null,"icon":null,"snippet":"","queueImg":"","latestUser":""},"geometry":{"type":"Point","coordinates":[103.9412887146769,1.323716786570326,0.0]}}
{"_id":{"$oid":"594a086191140e45d06f5611"},"type":"Feature","properties":{"Name":"EASTERN CLINIC \u0026 SURGERY PTE LTD","description":"","timestamp":null,"begin":null,"end":null,"altitudeMode":"clampToGround","tessellate":-1,"extrude":0,"visibility":-1,"drawOrder":null,"icon":null,"snippet":"","queueImg":"","latestUser":""},"geometry":{"type":"Point","coordinates":[103.7421599554313,1.339975979038877,0.0]}}
{"_id":{"$oid":"594a086191140e45d06f5612"},"type":"Feature","properties":{"Name":"EASTERN CLINIC \u0026 SURGERY PTE LTD","description":"","timestamp":null,"begin":null,"end":null,"altitudeMode":"clampToGround","tessellate":-1,"extrude":0,"visibility":-1,"drawOrder":null,"icon":null,"snippet":"","queueImg":"","latestUser":""},"geometry":{"type":"Point","coordinates":[103.7305606918804,1.347508228793349,0.0]}}
{"_id":{"$oid":"594a086191140e45d06f5613"},"type":"Feature","properties":{"Name":"EASTERN CLINIC AND DENTAL SURGERY","description":"","timestamp":null,"begin":null,"end":null,"altitudeMode":"clampToGround","tessellate":-1,"extrude":0,"visibility":-1,"drawOrder":null,"icon":null,"snippet":"","queueImg":"","latestUser":""},"geometry":{"type":"Point","coordinates":[103.735622181592,1.344856112211057,0.0]}}
{"_id":{"$oid":"594a086191140e45d06f5614"},"type":"Feature","properties":{"Name":"EASTERN MEDICAL CENTRE","description":"","timestamp":null,"begin":null,"end":null,"altitudeMode":"clampToGround","tessellate":-1,"extrude":0,"visibility":-1,"drawOrder":null,"icon":null,"snippet":"","queueImg":"","latestUser":""},"geometry":{"type":"Point","coordinates":[103.9149418311486,1.332959235483872,0.0]}}
{"_id":{"$oid":"594a086191140e45d06f5615"},"type":"Feature","properties":{"Name":"EC Family Clinic","description":"","timestamp":null,"begin":null,"end":null,"altitudeMode":"clampToGround","tessellate":-1,"extrude":0,"visibility":-1,"drawOrder":null,"icon":null,"snippet":"","queueImg":"","latestUser":""},"geometry":{"type":"Point","coordinates":[103.9031002605744,1.319727157503037,0.0]}}
{"_id":{"$oid":"594a086191140e45d06f5616"},"type":"Feature","properties":{"Name":"EDGEDALE MEDICAL CLINIC","description":"","timestamp":null,"begin":null,"end":null,"altitudeMode":"clampToGround","tessellate":-1,"extrude":0,"visibility":-1,"drawOrder":null,"icon":null,"snippet":"","queueImg":"","latestUser":""},"geometry":{"type":"Point","coordinates":[103.9091065625301,1.393509812468329,0.0]}}
{"_id":{"$oid":"594a086191140e45d06f5617"},"type":"Feature","properties":{"Name":"EE CLINIC","description":"","timestamp":null,"begin":null,"end":null,"altitudeMode":"clampToGround","tessellate":-1,"extrude":0,"visibility":-1,"drawOrder":null,"icon":null,"snippet":"","queueImg":"","latestUser":""},"geometry":{"type":"Point","coordinates":[103.8435469905641,1.370832028220571,0.0]}}
{"_id":{"$oid":"594a086191140e45d06f5618"},"type":"Feature","properties":{"Name":"EHA CLINIC @ Jurong","description":"","timestamp":null,"begin":null,"end":null,"altitudeMode":"clampToGround","tessellate":-1,"extrude":0,"visibility":-1,"drawOrder":null,"icon":null,"snippet":"","queueImg":"","latestUser":""},"geometry":{"type":"Point","coordinates":[103.7251804662711,1.349945435802745,0.0]}}
{"_id":{"$oid":"594a086191140e45d06f5619"},"type":"Feature","properties":{"Name":"EHA clinic @ Toa Payoh","description":"","timestamp":null,"begin":null,"end":null,"altitudeMode":"clampToGround","tessellate":-1,"extrude":0,"visibility":-1,"drawOrder":null,"icon":null,"snippet":"","queueImg":"","latestUser":""},"geometry":{"type":"Point","coordinates":[103.856789628566,1.335757236367831,0.0]}}
{"_id":{"$oid":"594a086191140e45d06f561a"},"type":"Feature","properties":{"Name":"EJ FAMILY CLINIC \u0026 SURGERY","description":"","timestamp":null,"begin":null,"end":null,"altitudeMode":"clampToGround","tessellate":-1,"extrude":0,"visibility":-1,"drawOrder":null,"icon":null,"snippet":"","queueImg":"","latestUser":""},"geometry":{"type":"Point","coordinates":[103.8462024611773,1.341237271093754,0.0]}}
{"_id":{"$oid":"594a086191140e45d06f561b"},"type":"Feature","properties":{"Name":"EL SHADDAI ARTHRITIS + RHEUMATISM SPECIALIST MEDICAL CENTRE","description":"","timestamp":null,"begin":null,"end":null,"altitudeMode":"clampToGround","tessellate":-1,"extrude":0,"visibility":-1,"drawOrder":null,"icon":null,"snippet":"","queueImg":"","latestUser":""},"geometry":{"type":"Point","coordinates":[103.8620020150142,1.320586094824845,0.0]}}
{"_id":{"$oid":"594a086191140e45d06f561c"},"type":"Feature","properties":{"Name":"ELIAS FAMILY CLINIC \u0026 SURGERY","description":"","timestamp":null,"begin":null,"end":null,"altitudeMode":"clampToGround","tessellate":-1,"extrude":0,"visibility":-1,"drawOrder":null,"icon":null,"snippet":"","queueImg":"","latestUser":""},"geometry":{"type":"Point","coordinates":[103.9419781749608,1.378602397558005,0.0]}}
{"_id":{"$oid":"594a086191140e45d06f561d"},"type":"Feature","properties":{"Name":"EMMANUEL MEDICAL CLINIC","description":"","timestamp":null,"begin":null,"end":null,"altitudeMode":"clampToGround","tessellate":-1,"extrude":0,"visibility":-1,"drawOrder":null,"icon":null,"snippet":"","queueImg":"","latestUser":""},"geometry":{"type":"Point","coordinates":[103.9502814871803,1.349159418156298,0.0]}}
{"_id":{"$oid":"594a086191140e45d06f561e"},"type":"Feature","properties":{"Name":"ESSENTIAL FAMILY CLINIC \u0026 SURGERY","description":"","timestamp":null,"begin":null,"end":null,"altitudeMode":"clampToGround","tessellate":-1,"extrude":0,"visibility":-1,"drawOrder":null,"icon":null,"snippet":"","queueImg":"","latestUser":""},"geometry":{"type":"Point","coordinates":[103.8001312631528,1.434097993934171,0.0]}}
{"_id":{"$oid":"594a086191140e45d06f561f"},"type":"Feature","properties":{"Name":"ESTHER YEO CLINIC","description":"","timestamp":null,"begin":null,"end":null,"altitudeMode":"clampToGround","tessellate":-1,"extrude":0,"visibility":-1,"drawOrder":null,"icon":null,"snippet":"","queueImg":"","latestUser":""},"geometry":{"type":"Point","coordinates":[103.7382633668942,1.344165272813723,0.0]}}
{"_id":{"$oid":"594a086191140e45d06f5620"},"type":"Feature","properties":{"Name":"EVANGEL MEDICAL CLINIC","description":"","timestamp":null,"begin":null,"end":null,"altitudeMode":"clampToGround","tessellate":-1,"extrude":0,"visibility":-1,"drawOrder":null,"icon":null,"snippet":"","queueImg":"","latestUser":""},"geometry":{"type":"Point","coordinates":[103.9248035995473,1.327275724095361,0.0]}}
{"_id":{"$oid":"594a086191140e45d06f5621"},"type":"Feature","properties":{"Name":"EVERCARE MEDICAL CLINIC","description":"","timestamp":null,"begin":null,"end":null,"altitudeMode":"clampToGround","tessellate":-1,"extrude":0,"visibility":-1,"drawOrder":null,"icon":null,"snippet":"","queueImg":"","latestUser":""},"geometry":{"type":"Point","coordinates":[103.7443936483712,1.377366074112333,0.0]}}
{"_id":{"$oid":"594a086191140e45d06f5622"},"type":"Feature","properties":{"Name":"EVERCARE MEDICAL CLINIC (475) PTE LTD","description":"","timestamp":null,"begin":null,"end":null,"altitudeMode":"clampToGround","tessellate":-1,"extrude":0,"visibility":-1,"drawOrder":null,"icon":null,"snippet":"","queueImg":"","latestUser":""},"geometry":{"type":"Point","coordinates":[103.7390154861311,1.377897276969317,0.0]}}
{"_id":{"$oid":"594a086191140e45d06f5623"},"type":"Feature","properties":{"Name":"EVERHEALTH FAMILY CLINIC \u0026 SURGERY","description":"","timestamp":null,"begin":null,"end":null,"altitudeMode":"clampToGround","tessellate":-1,"extrude":0,"visibility":-1,"drawOrder":null,"icon":null,"snippet":"","queueImg":"","latestUser":""},"geometry":{"type":"Point","coordinates":[103.6977320906593,1.348743571570252,0.0]}}
{"_id":{"$oid":"594a086191140e45d06f5624"},"type":"Feature","properties":{"Name":"EVERHEALTH MEDICAL CENTRE","description":"","timestamp":null,"begin":null,"end":null,"altitudeMode":"clampToGround","tessellate":-1,"extrude":0,"visibility":-1,"drawOrder":null,"icon":null,"snippet":"","queueImg":"","latestUser":""},"geometry":{"type":"Point","coordinates":[103.8912824667422,1.377815680969807,0.0]}}
{"_id":{"$oid":"594a086191140e45d06f5625"},"type":"Feature","properties":{"Name":"EVERTON CLINIC","description":"","timestamp":null,"begin":null,"end":null,"altitudeMode":"clampToGround","tessellate":-1,"extrude":0,"visibility":-1,"drawOrder":null,"icon":null,"snippet":"","queueImg":"","latestUser":""},"geometry":{"type":"Point","coordinates":[103.8386804708785,1.276924344574906,0.0]}}
{"_id":{"$oid":"594a086191140e45d06f5626"},"type":"Feature","properties":{"Name":"EVERWELL CLINIC \u0026 SURGERY","description":"","timestamp":null,"begin":null,"end":null,"altitudeMode":"clampToGround","tessellate":-1,"extrude":0,"visibility":-1,"drawOrder":null,"icon":null,"snippet":"","queueImg":"","latestUser":""},"geometry":{"type":"Point","coordinates":[103.8508254761126,1.315595675575263,0.0]}}
{"_id":{"$oid":"594a086191140e45d06f5627"},"type":"Feature","properties":{"Name":"EXCEL FAMILY CLINIC","description":"","timestamp":null,"begin":null,"end":null,"altitudeMode":"clampToGround","tessellate":-1,"extrude":0,"visibility":-1,"drawOrder":null,"icon":null,"snippet":"","queueImg":"","latestUser":""},"geometry":{"type":"Point","coordinates":[103.8878320170095,1.37924529078284,0.0]}}
{"_id":{"$oid":"594a086191140e45d06f5628"},"type":"Feature","properties":{"Name":"EXCELSIOR CLINIC \u0026 SURGERY","description":"","timestamp":null,"begin":null,"end":null,"altitudeMode":"clampToGround","tessellate":-1,"extrude":0,"visibility":-1,"drawOrder":null,"icon":null,"snippet":"","queueImg":"","latestUser":""},"geometry":{"type":"Point","coordinates":[103.7575393809407,1.346943657391599,0.0]}}
{"_id":{"$oid":"594a086191140e45d06f5629"},"type":"Feature","properties":{"Name":"Elyon Family Clinic And Surgery","description":"","timestamp":null,"begin":null,"end":null,"altitudeMode":"clampToGround","tessellate":-1,"extrude":0,"visibility":-1,"drawOrder":null,"icon":null,"snippet":"","queueImg":"","latestUser":""},"geometry":{"type":"Point","coordinates":[103.8083352346881,1.273632960043873,0.0]}}
{"_id":{"$oid":"594a086191140e45d06f562a"},"type":"Feature","properties":{"Name":"Etern Medical Clinic","description":"","timestamp":null,"begin":null,"end":null,"altitudeMode":"clampToGround","tessellate":-1,"extrude":0,"visibility":-1,"drawOrder":null,"icon":null,"snippet":"","queueImg":"","latestUser":""},"geometry":{"type":"Point","coordinates":[103.9020726384073,1.404546727787945,0.0]}}
{"_id":{"$oid":"594a086191140e45d06f562b"},"type":"Feature","properties":{"Name":"Etern Medical Clinic (Fernvale Palm)","description":"","timestamp":null,"begin":null,"end":null,"altitudeMode":"clampToGround","tessellate":-1,"extrude":0,"visibility":-1,"drawOrder":null,"icon":null,"snippet":"","queueImg":"","latestUser":""},"geometry":{"type":"Point","coordinates":[103.877202311346,1.394750476210286,0.0]}}
{"_id":{"$oid":"594a086191140e45d06f562c"},"type":"Feature","properties":{"Name":"Etern Medical Clinic (Sengkang)","description":"","timestamp":null,"begin":null,"end":null,"altitudeMode":"clampToGround","tessellate":-1,"extrude":0,"visibility":-1,"drawOrder":null,"icon":null,"snippet":"","queueImg":"","latestUser":""},"geometry":{"type":"Point","coordinates":[103.8761255068471,1.391470154120564,0.0]}}
{"_id":{"$oid":"594a086191140e45d06f562d"},"type":"Feature","properties":{"Name":"Eterna Medical Clinic","description":"","timestamp":null,"begin":null,"end":null,"altitudeMode":"clampToGround","tessellate":-1,"extrude":0,"visibility":-1,"drawOrder":null,"icon":null,"snippet":"","queueImg":"","latestUser":""},"geometry":{"type":"Point","coordinates":[103.8404086526856,1.380104750222318,0.0]}}
{"_id":{"$oid":"594a086191140e45d06f562e"},"type":"Feature","properties":{"Name":"FABER CLINIC \u0026 SURGERY","description":"","timestamp":null,"begin":null,"end":null,"altitudeMode":"clampToGround","tessellate":-1,"extrude":0,"visibility":-1,"drawOrder":null,"icon":null,"snippet":"","queueImg":"","latestUser":""},"geometry":{"type":"Point","coordinates":[103.7593125295573,1.31231254732582,0.0]}}
{"_id":{"$oid":"594a086191140e45d06f562f"},"type":"Feature","properties":{"Name":"FAITH CLINIC (BEDOK)","description":"","timestamp":null,"begin":null,"end":null,"altitudeMode":"clampToGround","tessellate":-1,"extrude":0,"visibility":-1,"drawOrder":null,"icon":null,"snippet":"","queueImg":"","latestUser":""},"geometry":{"type":"Point","coordinates":[103.9212157437984,1.337286448102748,0.0]}}
{"_id":{"$oid":"594a086191140e45d06f5630"},"type":"Feature","properties":{"Name":"FAITH CLINIC (SIMEI)","description":"","timestamp":null,"begin":null,"end":null,"altitudeMode":"clampToGround","tessellate":-1,"extrude":0,"visibility":-1,"drawOrder":null,"icon":null,"snippet":"","queueImg":"","latestUser":""},"geometry":{"type":"Point","coordinates":[103.9565613479893,1.346683510183928,0.0]}}
{"_id":{"$oid":"594a086191140e45d06f5631"},"type":"Feature","properties":{"Name":"FAITH CLINIC (TOA PAYOH)","description":"","timestamp":null,"begin":null,"end":null,"altitudeMode":"clampToGround","tessellate":-1,"extrude":0,"visibility":-1,"drawOrder":null,"icon":null,"snippet":"","queueImg":"","latestUser":""},"geometry":{"type":"Point","coordinates":[103.853768900177,1.340421788231474,0.0]}}
{"_id":{"$oid":"594a086191140e45d06f5632"},"type":"Feature","properties":{"Name":"FAITH FAMILY CLINIC","description":"","timestamp":null,"begin":null,"end":null,"altitudeMode":"clampToGround","tessellate":-1,"extrude":0,"visibility":-1,"drawOrder":null,"icon":null,"snippet":"","queueImg":"","latestUser":""},"geometry":{"type":"Point","coordinates":[103.9154847999798,1.3065125733947,0.0]}}
{"_id":{"$oid":"594a086191140e45d06f5633"},"type":"Feature","properties":{"Name":"FAITH FAMILY CLINIC (JURONG)","description":"","timestamp":null,"begin":null,"end":null,"altitudeMode":"clampToGround","tessellate":-1,"extrude":0,"visibility":-1,"drawOrder":null,"icon":null,"snippet":"","queueImg":"","latestUser":""},"geometry":{"type":"Point","coordinates":[103.6977320906593,1.348743571570252,0.0]}}
{"_id":{"$oid":"594a086191140e45d06f5634"},"type":"Feature","properties":{"Name":"FAITH HEALTHCARE (TAMPINES)","description":"","timestamp":null,"begin":null,"end":null,"altitudeMode":"clampToGround","tessellate":-1,"extrude":0,"visibility":-1,"drawOrder":null,"icon":null,"snippet":"","queueImg":"","latestUser":""},"geometry":{"type":"Point","coordinates":[103.9600421881578,1.354364937983925,0.0]}}
{"_id":{"$oid":"594a086191140e45d06f5635"},"type":"Feature","properties":{"Name":"FAITH MEDICAL CLINIC \u0026 SURGERY","description":"","timestamp":null,"begin":null,"end":null,"altitudeMode":"clampToGround","tessellate":-1,"extrude":0,"visibility":-1,"drawOrder":null,"icon":null,"snippet":"","queueImg":"","latestUser":""},"geometry":{"type":"Point","coordinates":[103.9578842419586,1.360758204200134,0.0]}}
{"_id":{"$oid":"594a086191140e45d06f5636"},"type":"Feature","properties":{"Name":"FAJAR FAMILY CLINIC \u0026 SURGERY","description":"","timestamp":null,"begin":null,"end":null,"altitudeMode":"clampToGround","tessellate":-1,"extrude":0,"visibility":-1,"drawOrder":null,"icon":null,"snippet":"","queueImg":"","latestUser":""},"geometry":{"type":"Point","coordinates":[103.7707683051502,1.383580445935803,0.0]}}
{"_id":{"$oid":"594a086191140e45d06f5637"},"type":"Feature","properties":{"Name":"FAMILY HEALTH CLINIC","description":"","timestamp":null,"begin":null,"end":null,"altitudeMode":"clampToGround","tessellate":-1,"extrude":0,"visibility":-1,"drawOrder":null,"icon":null,"snippet":"","queueImg":"","latestUser":""},"geometry":{"type":"Point","coordinates":[103.7928975747067,1.307434111272665,0.0]}}
{"_id":{"$oid":"594a086191140e45d06f5638"},"type":"Feature","properties":{"Name":"FAMILY HEALTH CLINIC \u0026 SURGERY","description":"","timestamp":null,"begin":null,"end":null,"altitudeMode":"clampToGround","tessellate":-1,"extrude":0,"visibility":-1,"drawOrder":null,"icon":null,"snippet":"","queueImg":"","latestUser":""},"geometry":{"type":"Point","coordinates":[103.8429354799877,1.3258962022207,0.0]}}
{"_id":{"$oid":"594a086191140e45d06f5639"},"type":"Feature","properties":{"Name":"Fullerton Healthcare","description":"","timestamp":null,"begin":null,"end":null,"altitudeMode":"clampToGround","tessellate":-1,"extrude":0,"visibility":-1,"drawOrder":null,"icon":null,"snippet":"","queueImg":"","latestUser":""},"geometry":{"type":"Point","coordinates":[103.8012641391327,1.273986400195607,0.0]}}
{"_id":{"$oid":"594a086191140e45d06f563a"},"type":"Feature","properties":{"Name":"Fullerton Healthcare @ Drs Trythall Hoy Davies","description":"","timestamp":null,"begin":null,"end":null,"altitudeMode":"clampToGround","tessellate":-1,"extrude":0,"visibility":-1,"drawOrder":null,"icon":null,"snippet":"","queueImg":"","latestUser":""},"geometry":{"type":"Point","coordinates":[103.7066850126357,1.339452716890063,0.0]}}
{"_id":{"$oid":"594a086191140e45d06f563b"},"type":"Feature","properties":{"Name":"Fullerton Healthcare @ Gethin-Jones","description":"","timestamp":null,"begin":null,"end":null,"altitudeMode":"clampToGround","tessellate":-1,"extrude":0,"visibility":-1,"drawOrder":null,"icon":null,"snippet":"","queueImg":"","latestUser":""},"geometry":{"type":"Point","coordinates":[103.8452821662212,1.273209212672539,0.0]}}
{"_id":{"$oid":"594a086191140e45d06f563c"},"type":"Feature","properties":{"Name":"Fullerton Healthcare @ Metropolis","description":"","timestamp":null,"begin":null,"end":null,"altitudeMode":"clampToGround","tessellate":-1,"extrude":0,"visibility":-1,"drawOrder":null,"icon":null,"snippet":"","queueImg":"","latestUser":""},"geometry":{"type":"Point","coordinates":[103.7912374580589,1.306245567978288,0.0]}}
{"_id":{"$oid":"594a086191140e45d06f563d"},"type":"Feature","properties":{"Name":"G \u0026 H MEDICAL CLINIC PTE LTD","description":"","timestamp":null,"begin":null,"end":null,"altitudeMode":"clampToGround","tessellate":-1,"extrude":0,"visibility":-1,"drawOrder":null,"icon":null,"snippet":"","queueImg":"","latestUser":""},"geometry":{"type":"Point","coordinates":[103.8274520042811,1.431478614106136,0.0]}}
{"_id":{"$oid":"594a086191140e45d06f563e"},"type":"Feature","properties":{"Name":"G S CLINIC \u0026 SURGERY","description":"","timestamp":null,"begin":null,"end":null,"altitudeMode":"clampToGround","tessellate":-1,"extrude":0,"visibility":-1,"drawOrder":null,"icon":null,"snippet":"","queueImg":"","latestUser":""},"geometry":{"type":"Point","coordinates":[103.8414323725057,1.37992681961032,0.0]}}
{"_id":{"$oid":"594a086191140e45d06f563f"},"type":"Feature","properties":{"Name":"G.I.F.T MEDICAL CENTRE","description":"","timestamp":null,"begin":null,"end":null,"altitudeMode":"clampToGround","tessellate":-1,"extrude":0,"visibility":-1,"drawOrder":null,"icon":null,"snippet":"","queueImg":"","latestUser":""},"geometry":{"type":"Point","coordinates":[103.8788299075453,1.333179334217989,0.0]}}
{"_id":{"$oid":"594a086191140e45d06f5640"},"type":"Feature","properties":{"Name":"GARDEN CLINIC","description":"","timestamp":null,"begin":null,"end":null,"altitudeMode":"clampToGround","tessellate":-1,"extrude":0,"visibility":-1,"drawOrder":null,"icon":null,"snippet":"","queueImg":"","latestUser":""},"geometry":{"type":"Point","coordinates":[103.8677730136516,1.353813453182392,0.0]}}
{"_id":{"$oid":"594a086191140e45d06f5641"},"type":"Feature","properties":{"Name":"GEYLANG BAHRU CLINIC","description":"","timestamp":null,"begin":null,"end":null,"altitudeMode":"clampToGround","tessellate":-1,"extrude":0,"visibility":-1,"drawOrder":null,"icon":null,"snippet":"","queueImg":"","latestUser":""},"geometry":{"type":"Point","coordinates":[103.8716515735986,1.315431758451275,0.0]}}
{"_id":{"$oid":"594a086191140e45d06f5642"},"type":"Feature","properties":{"Name":"GOH CLINIC \u0026 SURGERY","description":"","timestamp":null,"begin":null,"end":null,"altitudeMode":"clampToGround","tessellate":-1,"extrude":0,"visibility":-1,"drawOrder":null,"icon":null,"snippet":"","queueImg":"","latestUser":""},"geometry":{"type":"Point","coordinates":[103.8849884268225,1.358819115187743,0.0]}}
{"_id":{"$oid":"594a086191140e45d06f5643"},"type":"Feature","properties":{"Name":"GOH CLINIC + SURGERY","description":"","timestamp":null,"begin":null,"end":null,"altitudeMode":"clampToGround","tessellate":-1,"extrude":0,"visibility":-1,"drawOrder":null,"icon":null,"snippet":"","queueImg":"","latestUser":""},"geometry":{"type":"Point","coordinates":[103.7575393809407,1.346943657391599,0.0]}}
{"_id":{"$oid":"594a086191140e45d06f5644"},"type":"Feature","properties":{"Name":"GRACE CLINIC \u0026 SURGERY","description":"","timestamp":null,"begin":null,"end":null,"altitudeMode":"clampToGround","tessellate":-1,"extrude":0,"visibility":-1,"drawOrder":null,"icon":null,"snippet":"","queueImg":"","latestUser":""},"geometry":{"type":"Point","coordinates":[103.8388167214945,1.380467586274307,0.0]}}
{"_id":{"$oid":"594a086191140e45d06f5645"},"type":"Feature","properties":{"Name":"GREAT HEALTH MEDICAL CLINIC","description":"","timestamp":null,"begin":null,"end":null,"altitudeMode":"clampToGround","tessellate":-1,"extrude":0,"visibility":-1,"drawOrder":null,"icon":null,"snippet":"","queueImg":"","latestUser":""},"geometry":{"type":"Point","coordinates":[103.8552476669694,1.361913471681633,0.0]}}
{"_id":{"$oid":"594a086191140e45d06f5646"},"type":"Feature","properties":{"Name":"GREEN CROSS MEDICAL CENTRE","description":"","timestamp":null,"begin":null,"end":null,"altitudeMode":"clampToGround","tessellate":-1,"extrude":0,"visibility":-1,"drawOrder":null,"icon":null,"snippet":"","queueImg":"","latestUser":""},"geometry":{"type":"Point","coordinates":[103.9327149405667,1.349037434922108,0.0]}}
{"_id":{"$oid":"594a086191140e45d06f5647"},"type":"Feature","properties":{"Name":"GREENLIFE CLINIC \u0026 SURGERY","description":"","timestamp":null,"begin":null,"end":null,"altitudeMode":"clampToGround","tessellate":-1,"extrude":0,"visibility":-1,"drawOrder":null,"icon":null,"snippet":"","queueImg":"","latestUser":""},"geometry":{"type":"Point","coordinates":[103.8201394864307,1.449026685214947,0.0]}}
{"_id":{"$oid":"594a086191140e45d06f5648"},"type":"Feature","properties":{"Name":"GREENLIFE CLINIC \u0026 SURGERY","description":"","timestamp":null,"begin":null,"end":null,"altitudeMode":"clampToGround","tessellate":-1,"extrude":0,"visibility":-1,"drawOrder":null,"icon":null,"snippet":"","queueImg":"","latestUser":""},"geometry":{"type":"Point","coordinates":[103.7470847787154,1.398047361104287,0.0]}}
{"_id":{"$oid":"594a086191140e45d06f5649"},"type":"Feature","properties":{"Name":"GREENLINK MEDICAL CLINIC","description":"","timestamp":null,"begin":null,"end":null,"altitudeMode":"clampToGround","tessellate":-1,"extrude":0,"visibility":-1,"drawOrder":null,"icon":null,"snippet":"","queueImg":"","latestUser":""},"geometry":{"type":"Point","coordinates":[103.8315784196392,1.416498757800323,0.0]}}
{"_id":{"$oid":"594a086191140e45d06f564a"},"type":"Feature","properties":{"Name":"GSH CLINIC \u0026 SURGERY PTE. LTD.","description":"","timestamp":null,"begin":null,"end":null,"altitudeMode":"clampToGround","tessellate":-1,"extrude":0,"visibility":-1,"drawOrder":null,"icon":null,"snippet":"","queueImg":"","latestUser":""},"geometry":{"type":"Point","coordinates":[103.9334991797132,1.35670606459291,0.0]}}
{"_id":{"$oid":"594a086191140e45d06f564b"},"type":"Feature","properties":{"Name":"Gerrard Teoh Hematology \u0026 Medical Clinic","description":"","timestamp":null,"begin":null,"end":null,"altitudeMode":"clampToGround","tessellate":-1,"extrude":0,"visibility":-1,"drawOrder":null,"icon":null,"snippet":"","queueImg":"","latestUser":""},"geometry":{"type":"Point","coordinates":[103.8441607377272,1.320704902763649,0.0]}}
{"_id":{"$oid":"594a086191140e45d06f564c"},"type":"Feature","properties":{"Name":"H S LEE CLINIC \u0026 SURGERY","description":"","timestamp":null,"begin":null,"end":null,"altitudeMode":"clampToGround","tessellate":-1,"extrude":0,"visibility":-1,"drawOrder":null,"icon":null,"snippet":"","queueImg":"","latestUser":""},"geometry":{"type":"Point","coordinates":[103.8311206897914,1.437066282018293,0.0]}}
{"_id":{"$oid":"594a086191140e45d06f564d"},"type":"Feature","properties":{"Name":"HARMONY FAMILY CLINIC","description":"","timestamp":null,"begin":null,"end":null,"altitudeMode":"clampToGround","tessellate":-1,"extrude":0,"visibility":-1,"drawOrder":null,"icon":null,"snippet":"","queueImg":"","latestUser":""},"geometry":{"type":"Point","coordinates":[103.7487491956783,1.379756643848649,0.0]}}
{"_id":{"$oid":"594a086191140e45d06f564e"},"type":"Feature","properties":{"Name":"HAVELOCK FAMILY CLINIC","description":"","timestamp":null,"begin":null,"end":null,"altitudeMode":"clampToGround","tessellate":-1,"extrude":0,"visibility":-1,"drawOrder":null,"icon":null,"snippet":"","queueImg":"","latestUser":""},"geometry":{"type":"Point","coordinates":[103.8288241919628,1.28874603715135,0.0]}}
{"_id":{"$oid":"594a086191140e45d06f564f"},"type":"Feature","properties":{"Name":"HEAL MEDICAL CENTRE","description":"","timestamp":null,"begin":null,"end":null,"altitudeMode":"clampToGround","tessellate":-1,"extrude":0,"visibility":-1,"drawOrder":null,"icon":null,"snippet":"","queueImg":"","latestUser":""},"geometry":{"type":"Point","coordinates":[103.8531996619404,1.322133427937376,0.0]}}
{"_id":{"$oid":"594a086191140e45d06f5650"},"type":"Feature","properties":{"Name":"HEALTH PARTNERS FAMILY CLINIC","description":"","timestamp":null,"begin":null,"end":null,"altitudeMode":"clampToGround","tessellate":-1,"extrude":0,"visibility":-1,"drawOrder":null,"icon":null,"snippet":"","queueImg":"","latestUser":""},"geometry":{"type":"Point","coordinates":[103.7492448005221,1.350019208762526,0.0]}}
{"_id":{"$oid":"594a086191140e45d06f5651"},"type":"Feature","properties":{"Name":"HEALTH PARTNERS MEDICAL CLINIC","description":"","timestamp":null,"begin":null,"end":null,"altitudeMode":"clampToGround","tessellate":-1,"extrude":0,"visibility":-1,"drawOrder":null,"icon":null,"snippet":"","queueImg":"","latestUser":""},"geometry":{"type":"Point","coordinates":[103.8489582508799,1.281135616900876,0.0]}}
{"_id":{"$oid":"594a086191140e45d06f5652"},"type":"Feature","properties":{"Name":"HEALTH PARTNERSHIP MEDICAL CENTRE","description":"","timestamp":null,"begin":null,"end":null,"altitudeMode":"clampToGround","tessellate":-1,"extrude":0,"visibility":-1,"drawOrder":null,"icon":null,"snippet":"","queueImg":"","latestUser":""},"geometry":{"type":"Point","coordinates":[103.8253107610576,1.273929399133192,0.0]}}
{"_id":{"$oid":"594a086191140e45d06f5653"},"type":"Feature","properties":{"Name":"HEALTHLINK(AMK) MEDICAL CENTRE","description":"","timestamp":null,"begin":null,"end":null,"altitudeMode":"clampToGround","tessellate":-1,"extrude":0,"visibility":-1,"drawOrder":null,"icon":null,"snippet":"","queueImg":"","latestUser":""},"geometry":{"type":"Point","coordinates":[103.8382019399071,1.370966352297756,0.0]}}
{"_id":{"$oid":"594a086191140e45d06f5654"},"type":"Feature","properties":{"Name":"115 EASTPOINT CLINIC \u0026 SURGERY","description":"","timestamp":null,"begin":null,"end":null,"altitudeMode":"clampToGround","tessellate":-1,"extrude":0,"visibility":-1,"drawOrder":null,"icon":null,"snippet":"","queueImg":"","latestUser":""},"geometry":{"type":"Point","coordinates":[103.9368654042895,1.331433679865115,0.0]}}
{"_id":{"$oid":"594a086191140e45d06f5655"},"type":"Feature","properties":{"Name":"18 CLINIC","description":"","timestamp":null,"begin":null,"end":null,"altitudeMode":"clampToGround","tessellate":-1,"extrude":0,"visibility":-1,"drawOrder":null,"icon":null,"snippet":"","queueImg":"","latestUser":""},"geometry":{"type":"Point","coordinates":[103.8610874628648,1.319425390447603,0.0]}}
{"_id":{"$oid":"594a086191140e45d06f5656"},"type":"Feature","properties":{"Name":"1Aesthetics, Medical \u0026 Surgery","description":"","timestamp":null,"begin":null,"end":null,"altitudeMode":"clampToGround","tessellate":-1,"extrude":0,"visibility":-1,"drawOrder":null,"icon":null,"snippet":"","queueImg":"","latestUser":""},"geometry":{"type":"Point","coordinates":[103.7427664896947,1.334157520217129,0.0]}}
{"_id":{"$oid":"594a086191140e45d06f5657"},"type":"Feature","properties":{"Name":"338 FAMILY CLINIC","description":"","timestamp":null,"begin":null,"end":null,"altitudeMode":"clampToGround","tessellate":-1,"extrude":0,"visibility":-1,"drawOrder":null,"icon":null,"snippet":"","queueImg":"","latestUser":""},"geometry":{"type":"Point","coordinates":[103.8489869574234,1.363895701943269,0.0]}}
{"_id":{"$oid":"594a086191140e45d06f5658"},"type":"Feature","properties":{"Name":"81 FAMILY CLINIC","description":"","timestamp":null,"begin":null,"end":null,"altitudeMode":"clampToGround","tessellate":-1,"extrude":0,"visibility":-1,"drawOrder":null,"icon":null,"snippet":"","queueImg":"","latestUser":""},"geometry":{"type":"Point","coordinates":[103.9067407527967,1.301730137442757,0.0]}}
{"_id":{"$oid":"594a086191140e45d06f5659"},"type":"Feature","properties":{"Name":"888 PLAZA FAMILY CLINIC","description":"","timestamp":null,"begin":null,"end":null,"altitudeMode":"clampToGround","tessellate":-1,"extrude":0,"visibility":-1,"drawOrder":null,"icon":null,"snippet":"","queueImg":"","latestUser":""},"geometry":{"type":"Point","coordinates":[103.7953143835096,1.43712301469139,0.0]}}
{"_id":{"$oid":"594a086191140e45d06f565a"},"type":"Feature","properties":{"Name":"A \u0026 A Clinic","description":"","timestamp":null,"begin":null,"end":null,"altitudeMode":"clampToGround","tessellate":-1,"extrude":0,"visibility":-1,"drawOrder":null,"icon":null,"snippet":"","queueImg":"","latestUser":""},"geometry":{"type":"Point","coordinates":[103.7904540786397,1.431063954669677,0.0]}}
{"_id":{"$oid":"594a086191140e45d06f565b"},"type":"Feature","properties":{"Name":"A LIFE CLINIC PTE LTD","description":"","timestamp":null,"begin":null,"end":null,"altitudeMode":"clampToGround","tessellate":-1,"extrude":0,"visibility":-1,"drawOrder":null,"icon":null,"snippet":"","queueImg":"","latestUser":""},"geometry":{"type":"Point","coordinates":[103.8441607377272,1.320704902763649,0.0]}}
{"_id":{"$oid":"594a086191140e45d06f565c"},"type":"Feature","properties":{"Name":"ACCESS MEDICAL (KIM KEAT)","description":"","timestamp":null,"begin":null,"end":null,"altitudeMode":"clampToGround","tessellate":-1,"extrude":0,"visibility":-1,"drawOrder":null,"icon":null,"snippet":"","queueImg":"","latestUser":""},"geometry":{"type":"Point","coordinates":[103.851778402295,1.335013325609999,0.0]}}
{"_id":{"$oid":"594a086191140e45d06f565d"},"type":"Feature","properties":{"Name":"ACCESS MEDICAL (MARINE TERRACE)","description":"","timestamp":null,"begin":null,"end":null,"altitudeMode":"clampToGround","tessellate":-1,"extrude":0,"visibility":-1,"drawOrder":null,"icon":null,"snippet":"","queueImg":"","latestUser":""},"geometry":{"type":"Point","coordinates":[103.9140260296392,1.306117812787658,0.0]}}
{"_id":{"$oid":"594a086191140e45d06f565e"},"type":"Feature","properties":{"Name":"ACCESS MEDICAL (TOA PAYOH)","description":"","timestamp":null,"begin":null,"end":null,"altitudeMode":"clampToGround","tessellate":-1,"extrude":0,"visibility":-1,"drawOrder":null,"icon":null,"snippet":"","queueImg":"","latestUser":""},"geometry":{"type":"Point","coordinates":[103.851778402295,1.335013325609999,0.0]}}
{"_id":{"$oid":"594a086191140e45d06f565f"},"type":"Feature","properties":{"Name":"ACUMED MEDICAL GROUP","description":"","timestamp":null,"begin":null,"end":null,"altitudeMode":"clampToGround","tessellate":-1,"extrude":0,"visibility":-1,"drawOrder":null,"icon":null,"snippet":"","queueImg":"","latestUser":""},"geometry":{"type":"Point","coordinates":[103.8500902710745,1.284073485163945,0.0]}}
{"_id":{"$oid":"594a086191140e45d06f5660"},"type":"Feature","properties":{"Name":"ACUMED MEDICAL GROUP","description":"","timestamp":null,"begin":null,"end":null,"altitudeMode":"clampToGround","tessellate":-1,"extrude":0,"visibility":-1,"drawOrder":null,"icon":null,"snippet":"","queueImg":"","latestUser":""},"geometry":{"type":"Point","coordinates":[103.7066850126357,1.339452716890063,0.0]}}
{"_id":{"$oid":"594a086191140e45d06f5661"},"type":"Feature","properties":{"Name":"ACUMED MEDICAL GROUP","description":"","timestamp":null,"begin":null,"end":null,"altitudeMode":"clampToGround","tessellate":-1,"extrude":0,"visibility":-1,"drawOrder":null,"icon":null,"snippet":"","queueImg":"","latestUser":""},"geometry":{"type":"Point","coordinates":[103.6954326533486,1.32483860351969,0.0]}}
{"_id":{"$oid":"594a086191140e45d06f5662"},"type":"Feature","properties":{"Name":"ACUMED MEDICAL GROUP","description":"","timestamp":null,"begin":null,"end":null,"altitudeMode":"clampToGround","tessellate":-1,"extrude":0,"visibility":-1,"drawOrder":null,"icon":null,"snippet":"","queueImg":"","latestUser":""},"geometry":{"type":"Point","coordinates":[103.7224512479817,1.332373476001069,0.0]}}
{"_id":{"$oid":"594a086191140e45d06f5663"},"type":"Feature","properties":{"Name":"ACUMED MEDICAL GROUP","description":"","timestamp":null,"begin":null,"end":null,"altitudeMode":"clampToGround","tessellate":-1,"extrude":0,"visibility":-1,"drawOrder":null,"icon":null,"snippet":"","queueImg":"","latestUser":""},"geometry":{"type":"Point","coordinates":[103.652226413178,1.317154486336506,0.0]}}
{"_id":{"$oid":"594a086191140e45d06f5664"},"type":"Feature","properties":{"Name":"Horizon Medical Centre","description":"","timestamp":null,"begin":null,"end":null,"altitudeMode":"clampToGround","tessellate":-1,"extrude":0,"visibility":-1,"drawOrder":null,"icon":null,"snippet":"","queueImg":"","latestUser":""},"geometry":{"type":"Point","coordinates":[103.8360536486927,1.351844991400321,0.0]}}
{"_id":{"$oid":"594a086191140e45d06f5665"},"type":"Feature","properties":{"Name":"Hua Mei Clinic","description":"","timestamp":null,"begin":null,"end":null,"altitudeMode":"clampToGround","tessellate":-1,"extrude":0,"visibility":-1,"drawOrder":null,"icon":null,"snippet":"","queueImg":"","latestUser":""},"geometry":{"type":"Point","coordinates":[103.8280935033769,1.286299371497305,0.0]}}
{"_id":{"$oid":"594a086191140e45d06f5666"},"type":"Feature","properties":{"Name":"ICON MEDICAL CLINIC","description":"","timestamp":null,"begin":null,"end":null,"altitudeMode":"clampToGround","tessellate":-1,"extrude":0,"visibility":-1,"drawOrder":null,"icon":null,"snippet":"","queueImg":"","latestUser":""},"geometry":{"type":"Point","coordinates":[103.7197243060303,1.345849591911737,0.0]}}
{"_id":{"$oid":"594a086191140e45d06f5667"},"type":"Feature","properties":{"Name":"ISLAND FAMILY CLINIC (FERNVALE)","description":"","timestamp":null,"begin":null,"end":null,"altitudeMode":"clampToGround","tessellate":-1,"extrude":0,"visibility":-1,"drawOrder":null,"icon":null,"snippet":"","queueImg":"","latestUser":""},"geometry":{"type":"Point","coordinates":[103.8812327645576,1.397859748990949,0.0]}}
{"_id":{"$oid":"594a086191140e45d06f5668"},"type":"Feature","properties":{"Name":"ISLAND FAMILY CLINIC (KEAT HONG)","description":"","timestamp":null,"begin":null,"end":null,"altitudeMode":"clampToGround","tessellate":-1,"extrude":0,"visibility":-1,"drawOrder":null,"icon":null,"snippet":"","queueImg":"","latestUser":""},"geometry":{"type":"Point","coordinates":[103.7427596217945,1.374155334147656,0.0]}}
{"_id":{"$oid":"594a086191140e45d06f5669"},"type":"Feature","properties":{"Name":"Island Family Clinic (Bedok)","description":"","timestamp":null,"begin":null,"end":null,"altitudeMode":"clampToGround","tessellate":-1,"extrude":0,"visibility":-1,"drawOrder":null,"icon":null,"snippet":"","queueImg":"","latestUser":""},"geometry":{"type":"Point","coordinates":[103.9348306066801,1.336072095184531,0.0]}}
{"_id":{"$oid":"594a086191140e45d06f566a"},"type":"Feature","properties":{"Name":"Island Family Clinic (Sengkang)","description":"","timestamp":null,"begin":null,"end":null,"altitudeMode":"clampToGround","tessellate":-1,"extrude":0,"visibility":-1,"drawOrder":null,"icon":null,"snippet":"","queueImg":"","latestUser":""},"geometry":{"type":"Point","coordinates":[103.8929954955892,1.386218355594233,0.0]}}
{"_id":{"$oid":"594a086191140e45d06f566b"},"type":"Feature","properties":{"Name":"JAPAN CLINIC AND SURGERY","description":"","timestamp":null,"begin":null,"end":null,"altitudeMode":"clampToGround","tessellate":-1,"extrude":0,"visibility":-1,"drawOrder":null,"icon":null,"snippet":"","queueImg":"","latestUser":""},"geometry":{"type":"Point","coordinates":[103.8600643070925,1.307420152388201,0.0]}}
{"_id":{"$oid":"594a086191140e45d06f566c"},"type":"Feature","properties":{"Name":"JIREH FAMILY CLINIC","description":"","timestamp":null,"begin":null,"end":null,"altitudeMode":"clampToGround","tessellate":-1,"extrude":0,"visibility":-1,"drawOrder":null,"icon":null,"snippet":"","queueImg":"","latestUser":""},"geometry":{"type":"Point","coordinates":[103.790548014868,1.442753332344898,0.0]}}
{"_id":{"$oid":"594a086191140e45d06f566d"},"type":"Feature","properties":{"Name":"JJ CLINIC \u0026 SURGERY","description":"","timestamp":null,"begin":null,"end":null,"altitudeMode":"clampToGround","tessellate":-1,"extrude":0,"visibility":-1,"drawOrder":null,"icon":null,"snippet":"","queueImg":"","latestUser":""},"geometry":{"type":"Point","coordinates":[103.8373814097994,1.371384001014014,0.0]}}
{"_id":{"$oid":"594a086191140e45d06f566e"},"type":"Feature","properties":{"Name":"JO-LIN FAMILY CLINIC \u0026 SURGERY","description":"","timestamp":null,"begin":null,"end":null,"altitudeMode":"clampToGround","tessellate":-1,"extrude":0,"visibility":-1,"drawOrder":null,"icon":null,"snippet":"","queueImg":"","latestUser":""},"geometry":{"type":"Point","coordinates":[103.7430995734479,1.392073886669579,0.0]}}
{"_id":{"$oid":"594a086191140e45d06f566f"},"type":"Feature","properties":{"Name":"JOY CLINIC AND SURGERY","description":"","timestamp":null,"begin":null,"end":null,"altitudeMode":"clampToGround","tessellate":-1,"extrude":0,"visibility":-1,"drawOrder":null,"icon":null,"snippet":"","queueImg":"","latestUser":""},"geometry":{"type":"Point","coordinates":[103.8354465034046,1.415625173595376,0.0]}}
{"_id":{"$oid":"594a086191140e45d06f5670"},"type":"Feature","properties":{"Name":"JOY FAMILY CLINIC","description":"","timestamp":null,"begin":null,"end":null,"altitudeMode":"clampToGround","tessellate":-1,"extrude":0,"visibility":-1,"drawOrder":null,"icon":null,"snippet":"","queueImg":"","latestUser":""},"geometry":{"type":"Point","coordinates":[103.9198930550601,1.337165074650874,0.0]}}
{"_id":{"$oid":"594a086191140e45d06f5671"},"type":"Feature","properties":{"Name":"JOYSPRING FAMILY CLINIC","description":"","timestamp":null,"begin":null,"end":null,"altitudeMode":"clampToGround","tessellate":-1,"extrude":0,"visibility":-1,"drawOrder":null,"icon":null,"snippet":"","queueImg":"","latestUser":""},"geometry":{"type":"Point","coordinates":[103.8426441636018,1.371139685795407,0.0]}}
{"_id":{"$oid":"594a086191140e45d06f5672"},"type":"Feature","properties":{"Name":"JUBILEE FAMILY PHYSICIANS","description":"","timestamp":null,"begin":null,"end":null,"altitudeMode":"clampToGround","tessellate":-1,"extrude":0,"visibility":-1,"drawOrder":null,"icon":null,"snippet":"","queueImg":"","latestUser":""},"geometry":{"type":"Point","coordinates":[103.9646322249653,1.367073575116669,0.0]}}
{"_id":{"$oid":"594a086191140e45d06f5673"},"type":"Feature","properties":{"Name":"JURONG EAST CLINIC","description":"","timestamp":null,"begin":null,"end":null,"altitudeMode":"clampToGround","tessellate":-1,"extrude":0,"visibility":-1,"drawOrder":null,"icon":null,"snippet":"","queueImg":"","latestUser":""},"geometry":{"type":"Point","coordinates":[103.7346099744212,1.339213864412887,0.0]}}
{"_id":{"$oid":"594a086191140e45d06f5674"},"type":"Feature","properties":{"Name":"JW Corporation Clinic Pte Ltd","description":"","timestamp":null,"begin":null,"end":null,"altitudeMode":"clampToGround","tessellate":-1,"extrude":0,"visibility":-1,"drawOrder":null,"icon":null,"snippet":"","queueImg":"","latestUser":""},"geometry":{"type":"Point","coordinates":[103.7184299337396,1.349027089472371,0.0]}}
{"_id":{"$oid":"594a086191140e45d06f5675"},"type":"Feature","properties":{"Name":"Jane \u0026 Lee Sembawang Family Clinic","description":"","timestamp":null,"begin":null,"end":null,"altitudeMode":"clampToGround","tessellate":-1,"extrude":0,"visibility":-1,"drawOrder":null,"icon":null,"snippet":"","queueImg":"","latestUser":""},"geometry":{"type":"Point","coordinates":[103.8155808690885,1.456036997430963,0.0]}}
{"_id":{"$oid":"594a086191140e45d06f5676"},"type":"Feature","properties":{"Name":"Joash Family Clinic \u0026 Surgery","description":"","timestamp":null,"begin":null,"end":null,"altitudeMode":"clampToGround","tessellate":-1,"extrude":0,"visibility":-1,"drawOrder":null,"icon":null,"snippet":"","queueImg":"","latestUser":""},"geometry":{"type":"Point","coordinates":[103.8885369015176,1.362981138790562,0.0]}}
{"_id":{"$oid":"594a086191140e45d06f5677"},"type":"Feature","properties":{"Name":"JoyHealth Medical Clinic \u0026 Surgery","description":"","timestamp":null,"begin":null,"end":null,"altitudeMode":"clampToGround","tessellate":-1,"extrude":0,"visibility":-1,"drawOrder":null,"icon":null,"snippet":"","queueImg":"","latestUser":""},"geometry":{"type":"Point","coordinates":[103.9327877070335,1.349437509492284,0.0]}}
{"_id":{"$oid":"594a086191140e45d06f5678"},"type":"Feature","properties":{"Name":"Jurong Day \u0026 Night Clinic","description":"","timestamp":null,"begin":null,"end":null,"altitudeMode":"clampToGround","tessellate":-1,"extrude":0,"visibility":-1,"drawOrder":null,"icon":null,"snippet":"","queueImg":"","latestUser":""},"geometry":{"type":"Point","coordinates":[103.6929169783253,1.341702459921717,0.0]}}
{"_id":{"$oid":"594a086191140e45d06f5679"},"type":"Feature","properties":{"Name":"K L TAY CLINIC \u0026 SURGERY","description":"","timestamp":null,"begin":null,"end":null,"altitudeMode":"clampToGround","tessellate":-1,"extrude":0,"visibility":-1,"drawOrder":null,"icon":null,"snippet":"","queueImg":"","latestUser":""},"geometry":{"type":"Point","coordinates":[103.9141450753906,1.332050946193414,0.0]}}
{"_id":{"$oid":"594a086191140e45d06f567a"},"type":"Feature","properties":{"Name":"Chua Medical Centre Pte Ltd","description":"","timestamp":null,"begin":null,"end":null,"altitudeMode":"clampToGround","tessellate":-1,"extrude":0,"visibility":-1,"drawOrder":null,"icon":null,"snippet":"","queueImg":"","latestUser":""},"geometry":{"type":"Point","coordinates":[103.9534179573792,1.343718565560191,0.0]}}
{"_id":{"$oid":"594a086191140e45d06f567b"},"type":"Feature","properties":{"Name":"Chungkiaw Clinic Pte Ltd","description":"","timestamp":null,"begin":null,"end":null,"altitudeMode":"clampToGround","tessellate":-1,"extrude":0,"visibility":-1,"drawOrder":null,"icon":null,"snippet":"","queueImg":"","latestUser":""},"geometry":{"type":"Point","coordinates":[103.7763063951778,1.341018987796112,0.0]}}
{"_id":{"$oid":"594a086191140e45d06f567c"},"type":"Feature","properties":{"Name":"Clinic@Costa","description":"","timestamp":null,"begin":null,"end":null,"altitudeMode":"clampToGround","tessellate":-1,"extrude":0,"visibility":-1,"drawOrder":null,"icon":null,"snippet":"","queueImg":"","latestUser":""},"geometry":{"type":"Point","coordinates":[103.9401169909238,1.312188165226036,0.0]}}
{"_id":{"$oid":"594a086191140e45d06f567d"},"type":"Feature","properties":{"Name":"Clover Medical Clinic Pte Ltd","description":"","timestamp":null,"begin":null,"end":null,"altitudeMode":"clampToGround","tessellate":-1,"extrude":0,"visibility":-1,"drawOrder":null,"icon":null,"snippet":"","queueImg":"","latestUser":""},"geometry":{"type":"Point","coordinates":[103.746636294808,1.397065984885374,0.0]}}
{"_id":{"$oid":"594a086191140e45d06f567e"},"type":"Feature","properties":{"Name":"Corporation Clinic (Choa Chu Kang)","description":"","timestamp":null,"begin":null,"end":null,"altitudeMode":"clampToGround","tessellate":-1,"extrude":0,"visibility":-1,"drawOrder":null,"icon":null,"snippet":"","queueImg":"","latestUser":""},"geometry":{"type":"Point","coordinates":[103.7443936483712,1.377366074112333,0.0]}}
{"_id":{"$oid":"594a086191140e45d06f567f"},"type":"Feature","properties":{"Name":"DAILY MEDICAL CENTRE","description":"","timestamp":null,"begin":null,"end":null,"altitudeMode":"clampToGround","tessellate":-1,"extrude":0,"visibility":-1,"drawOrder":null,"icon":null,"snippet":"","queueImg":"","latestUser":""},"geometry":{"type":"Point","coordinates":[103.8795172318614,1.351448325531265,0.0]}}
{"_id":{"$oid":"594a086191140e45d06f5680"},